"name","state","lat","lng"
"Abanda",AL,33.091627,-85.527029
"Abbeville",AL,31.564689,-85.259124
"Adamsville",AL,33.60575,-86.97465
"Addison",AL,34.202681,-87.178004
"Akron",AL,32.879495,-87.741679
"Alabaster",AL,33.219442,-86.823907
"Albertville",AL,34.26313,-86.21066
"Alexander",AL,32.92724,-85.937122
"Alexandria",AL,33.760819,-85.872008
"Aliceville",AL,33.123686,-88.159364
"Allgood",AL,33.907623,-86.516109
"Altoona",AL,34.039204,-86.305697
"Andalusia",AL,31.309436,-86.478031
"Anderson",AL,34.915675,-87.274274
"Anniston",AL,33.67344,-85.810918
"Arab",AL,34.332387,-86.501167
"Ardmore",AL,34.987838,-86.829022
"Argo",AL,33.691576,-86.503766
"Ariton",AL,31.597772,-85.713061
"Arley",AL,34.076234,-87.217831
"Ashford",AL,31.185284,-85.236236
"Ashland",AL,33.269892,-85.833706
"Ashville",AL,33.835197,-86.270015
"Athens",AL,34.779021,-86.950799
"Atmore",AL,31.127936,-87.457643
"Attalla",AL,33.986189,-86.121037
"Auburn",AL,32.607722,-85.489545
"Autaugaville",AL,32.432563,-86.658752
"Avon",AL,31.179727,-85.279211
"Axis",AL,30.922563,-88.02185
"Babbie",AL,31.302083,-86.319437
"Baileyton",AL,34.260858,-86.608788
"Bakerhill",AL,31.776923,-85.295408
"Ballplay",AL,34.023046,-85.801481
"Banks",AL,31.813264,-85.836434
"Bay Minette",AL,30.894436,-87.791306
"Bayou La Batre",AL,30.407586,-88.263271
"Bear Creek",AL,34.255481,-87.713399
"Beatrice",AL,31.733309,-87.209046
"Beaverton",AL,33.935411,-88.021778
"Belgreen",AL,34.474665,-87.861685
"Belk",AL,33.651647,-87.928609
"Bellamy",AL,32.463658,-88.131481
"Belle Fontaine",AL,30.489492,-88.10594
"Benton",AL,32.307931,-86.817546
"Berry",AL,33.666702,-87.609311
"Bessemer",AL,33.370789,-86.971596
"Billingsley",AL,32.66522,-86.706673
"Birmingham",AL,33.527444,-86.799047
"Black",AL,31.010249,-85.742791
"Blountsville",AL,34.075728,-86.583728
"Blue Ridge",AL,32.4989,-86.182436
"Blue Springs",AL,31.663516,-85.503526
"Boaz",AL,34.19902,-86.155151
"Boligee",AL,32.7681,-88.028579
"Bon Air",AL,33.25937,-86.327148
"Boykin",AL,32.068375,-87.294343
"Brantley",AL,31.581992,-86.256784
"Brantleyville",AL,33.219303,-86.882522
"Brent",AL,32.944893,-87.172088
"Brewton",AL,31.109175,-87.076583
"Bridgeport",AL,34.949312,-85.723765
"Brighton",AL,33.439229,-86.945385
"Brilliant",AL,34.025353,-87.769145
"Bristow Cove",AL,34.109216,-86.240993
"Brook Highland",AL,33.442183,-86.686686
"Brookside",AL,33.636966,-86.89608
"Brookwood",AL,33.239844,-87.331494
"Broomtown",AL,34.365728,-85.532112
"Brundidge",AL,31.717639,-85.81755
"Bucks",AL,31.016881,-88.026385
"Butler",AL,32.095113,-88.21397
"Calera",AL,33.122324,-86.745644
"Calvert",AL,31.15447,-88.01046
"Camden",AL,31.998493,-87.28895
"Camp Hill",AL,32.797327,-85.655833
"Carbon Hill",AL,33.894991,-87.522078
"Cardiff",AL,33.647188,-86.930557
"Carlisle-Rockledge",AL,34.114451,-86.124073
"Carlton",AL,31.348571,-87.835666
"Carolina",AL,31.23415,-86.521001
"Carrollton",AL,33.261903,-88.095071
"Castleberry",AL,31.299678,-87.029129
"Catherine",AL,32.18617,-87.469978
"Cedar Bluff",AL,34.221422,-85.588565
"Center Point",AL,33.643903,-86.684567
"Centre",AL,34.155363,-85.668842
"Centreville",AL,32.958798,-87.132305
"Chatom",AL,31.469145,-88.246019
"Chelsea",AL,33.326887,-86.629519
"Cherokee",AL,34.7577,-87.965589
"Chickasaw",AL,30.77145,-88.079697
"Childersburg",AL,33.291877,-86.340599
"Choccolocco",AL,33.674346,-85.710918
"Chunchula",AL,30.927194,-88.2082
"Citronelle",AL,31.097266,-88.249839
"Clanton",AL,32.841704,-86.623008
"Clay",AL,33.696582,-86.608166
"Clayhatchee",AL,31.236925,-85.721478
"Clayton",AL,31.882414,-85.460541
"Cleveland",AL,34.002179,-86.561352
"Clio",AL,31.708516,-85.611039
"Coaling",AL,33.169901,-87.349887
"Coats Bend",AL,34.077426,-85.874184
"Coffee Springs",AL,31.165836,-85.910898
"Coffeeville",AL,31.766564,-88.086049
"Coker",AL,33.243752,-87.681329
"Collinsville",AL,34.262193,-85.867868
"Colony",AL,33.941185,-86.901864
"Columbia",AL,31.295351,-85.110202
"Columbiana",AL,33.19145,-86.615666
"Concord",AL,33.461986,-87.040435
"Coosada",AL,32.495394,-86.326543
"Cordova",AL,33.761292,-87.201099
"Cottondale",AL,33.193047,-87.454861
"Cottonwood",AL,31.054033,-85.29956
"County Line",AL,33.820895,-86.71973
"Courtland",AL,34.669946,-87.327892
"Cowarts",AL,31.206248,-85.309769
"Creola",AL,30.874343,-88.009442
"Crossville",AL,34.285486,-85.998756
"Cuba",AL,32.440733,-88.374798
"Cullman",AL,34.179337,-86.840793
"Cullomburg",AL,31.713061,-88.291774
"Cusseta",AL,32.787654,-85.305748
"Dadeville",AL,32.826114,-85.776201
"Daleville",AL,31.291397,-85.711418
"Daphne",AL,30.625545,-87.895979
"Dauphin Island",AL,30.250913,-88.171268
"Daviston",AL,33.056839,-85.634329
"Dayton",AL,32.350958,-87.641573
"Deatsville",AL,32.588972,-86.388984
"Decatur",AL,34.573321,-86.992135
"Deer Park",AL,31.218369,-88.328023
"Delta",AL,33.440524,-85.675905
"Demopolis",AL,32.499938,-87.825426
"Detroit",AL,34.027379,-88.167831
"Dodge",AL,34.045414,-86.88267
"Dora",AL,33.729703,-87.083874
"Dothan",AL,31.233698,-85.406823
"Double Springs",AL,34.15134,-87.403488
"Douglas",AL,34.168258,-86.323386
"Dozier",AL,31.505407,-86.369235
"Dunnavant",AL,33.508673,-86.529843
"Dutton",AL,34.606152,-85.91185
"East Brewton",AL,31.09144,-87.055345
"East Point",AL,34.191023,-86.791785
"Eclectic",AL,32.640179,-86.041096
"Edgewater",AL,33.530099,-86.95279
"Edwardsville",AL,33.88374,-85.414124
"Egypt",AL,34.075931,-86.165051
"Elba",AL,31.417313,-86.077189
"Elberta",AL,30.373689,-87.595778
"Eldridge",AL,33.922018,-87.620108
"Elkmont",AL,34.932604,-86.976971
"Elmore",AL,32.544337,-86.336446
"Emelle",AL,32.728678,-88.316486
"Emerald Mountain",AL,32.447641,-86.094618
"Enterprise",AL,31.326912,-85.844077
"Epes",AL,32.691249,-88.126852
"Ethelsville",AL,33.414066,-88.216093
"Eufaula",AL,31.910041,-85.152556
"Eunola",AL,31.03139,-85.833966
"Eutaw",AL,32.846247,-87.900332
"Eva",AL,34.326504,-86.765318
"Evergreen",AL,31.442718,-86.959904
"Excel",AL,31.426386,-87.343663
"Fairfield",AL,33.474704,-86.919339
"Fairford",AL,31.178002,-88.072784
"Fairhope",AL,30.52092,-87.879122
"Fairview",AL,34.24906,-86.688834
"Falkville",AL,34.377019,-86.909547
"Faunsdale",AL,32.457614,-87.593789
"Fayette",AL,33.694215,-87.831169
"Fayetteville",AL,33.168097,-86.442774
"Fitzpatrick",AL,32.210373,-85.873699
"Five Points",AL,33.017311,-85.351592
"Flomaton",AL,31.014816,-87.256016
"Florala",AL,31.022391,-86.318152
"Florence",AL,34.830323,-87.666139
"Foley",AL,30.397009,-87.664211
"Forestdale",AL,33.574074,-86.899918
"Forkland",AL,32.647435,-87.867436
"Fort Deposit",AL,31.986261,-86.566359
"Fort Payne",AL,34.457329,-85.689447
"Fort Rucker",AL,31.342576,-85.716072
"Franklin",AL,32.455269,-85.807017
"Fredonia",AL,32.973565,-85.302938
"Frisco",AL,31.439485,-87.404182
"Fruitdale",AL,31.34979,-88.410937
"Fruithurst",AL,33.729539,-85.431249
"Fulton",AL,31.790989,-87.744212
"Fultondale",AL,33.617648,-86.801595
"Fyffe",AL,34.449615,-85.904969
"Gadsden",AL,34.009563,-86.015643
"Gainesville",AL,32.814934,-88.160791
"Gallant",AL,34.001318,-86.230171
"Gantt",AL,31.41074,-86.483524
"Garden",AL,34.015971,-86.751158
"Gardendale",AL,33.676587,-86.809844
"Gaylesville",AL,34.268103,-85.558468
"Geiger",AL,32.868715,-88.318154
"Geneva",AL,31.044886,-85.876818
"Georgiana",AL,31.639134,-86.746762
"Geraldine",AL,34.359087,-86.002579
"Gilbertown",AL,31.875791,-88.319489
"Glen Allen",AL,33.892108,-87.732682
"Glencoe",AL,33.939389,-85.934313
"Glenwood",AL,31.671266,-86.173687
"Goldville",AL,33.084867,-85.777982
"Good Hope",AL,34.109835,-86.865195
"Goodwater",AL,33.060835,-86.052333
"Gordo",AL,33.322286,-87.903681
"Gordon",AL,31.143938,-85.093249
"Gordonville",AL,32.159179,-86.704235
"Goshen",AL,31.720015,-86.123245
"Graham",AL,33.455191,-85.323085
"Grand Bay",AL,30.472082,-88.344401
"Grant",AL,34.518173,-86.26043
"Grayson Valley",AL,33.647038,-86.641281
"Graysville",AL,33.658258,-86.96732
"Greensboro",AL,32.700968,-87.5937
"Greenville",AL,31.843072,-86.636951
"Grimes",AL,31.299856,-85.450292
"Grove Hill",AL,31.702294,-87.773845
"Guin",AL,33.982923,-87.901804
"Gulfcrest",AL,30.991106,-88.242231
"Gulf Shores",AL,30.273981,-87.707168
"Guntersville",AL,34.367947,-86.252323
"Gurley",AL,34.702471,-86.37433
"Gu-Win",AL,33.944319,-87.870368
"Hackleburg",AL,34.269355,-87.830402
"Hackneyville",AL,33.054654,-85.934423
"Haleburg",AL,31.409976,-85.138068
"Haleyville",AL,34.233832,-87.617574
"Hamilton",AL,34.13871,-87.970837
"Hammondville",AL,34.566264,-85.640252
"Hanceville",AL,34.062507,-86.762524
"Harpersville",AL,33.317725,-86.428431
"Hartford",AL,31.105348,-85.691225
"Hartselle",AL,34.440434,-86.940364
"Harvest",AL,34.85507,-86.758643
"Hatton",AL,34.560671,-87.413835
"Hayden",AL,33.894514,-86.744224
"Hayneville",AL,32.182595,-86.578588
"Hazel Green",AL,34.923656,-86.567392
"Headland",AL,31.354974,-85.357031
"Heath",AL,31.344839,-86.46905
"Heflin",AL,33.6474,-85.569339
"Helena",AL,33.285635,-86.874488
"Henagar",AL,34.630641,-85.730918
"Highland Lake",AL,33.894586,-86.422553
"Highland Lakes",AL,33.398378,-86.651296
"Hillsboro",AL,34.642586,-87.178489
"Hissop",AL,32.869773,-86.123622
"Hobson",AL,31.488725,-88.150928
"Hobson",AL,33.618801,-85.846146
"Hodges",AL,34.334246,-87.92316
"Hokes Bluff",AL,33.989682,-85.862873
"Hollins",AL,33.121757,-86.126967
"Hollis Crossroads",AL,33.531333,-85.652862
"Holly Pond",AL,34.167187,-86.611799
"Hollywood",AL,34.717279,-85.965579
"Holt",AL,33.229745,-87.482894
"Holtville",AL,32.630299,-86.328004
"Homewood",AL,33.45855,-86.80965
"Hoover",AL,33.376949,-86.805579
"Horn Hill",AL,31.238158,-86.325104
"Hueytown",AL,33.408484,-87.01658
"Huguley",AL,32.842982,-85.239366
"Huntsville",AL,34.699013,-86.67298
"Hurtsboro",AL,32.24009,-85.41467
"Hytop",AL,34.906403,-86.085258
"Ider",AL,34.702161,-85.669042
"Indian Springs",AL,33.361209,-86.746856
"Irondale",AL,33.539847,-86.660539
"Ivalee",AL,34.0372,-86.147175
"Jackson",AL,31.532321,-87.891183
"Jacksons' Gap",AL,32.884019,-85.815046
"Jacksonville",AL,33.809108,-85.753918
"Jasper",AL,33.856035,-87.270268
"Jemison",AL,32.970705,-86.73307
"Joppa",AL,34.29955,-86.549946
"Kansas",AL,33.902808,-87.556598
"Kellyton",AL,32.979188,-86.034608
"Kennedy",AL,33.580891,-87.986179
"Killen",AL,34.860954,-87.529346
"Kimberly",AL,33.775851,-86.797082
"Kinsey",AL,31.292637,-85.3354
"Kinston",AL,31.219604,-86.170075
"Ladonia",AL,32.459854,-85.097139
"La Fayette",AL,32.899427,-85.400795
"Lakeview",AL,34.391629,-85.975704
"Lake View",AL,33.281696,-87.1413
"Lanett",AL,32.857873,-85.207744
"Langston",AL,34.545063,-86.09335
"Leeds",AL,33.546826,-86.571975
"Leesburg",AL,34.178627,-85.777897
"Leighton",AL,34.698625,-87.529116
"Leroy",AL,31.494937,-87.972782
"Lester",AL,34.982751,-87.155535
"Level Plains",AL,31.30707,-85.768755
"Lexington",AL,34.959351,-87.37283
"Libertyville",AL,31.24398,-86.46015
"Lincoln",AL,33.622176,-86.070637
"Linden",AL,32.301358,-87.792564
"Lineville",AL,33.312832,-85.752278
"Lipscomb",AL,33.426054,-86.926026
"Lisman",AL,32.171729,-88.284092
"Littleville",AL,34.595132,-87.670739
"Livingston",AL,32.595549,-88.186929
"Loachapoka",AL,32.607946,-85.598479
"Lockhart",AL,31.013011,-86.350273
"Locust Fork",AL,33.876794,-86.647093
"Lookout Mountain",AL,34.115916,-85.965464
"Louisville",AL,31.781047,-85.558336
"Lowndesboro",AL,32.276422,-86.610848
"Loxley",AL,30.684588,-87.739213
"Luverne",AL,31.718941,-86.269082
"Lynn",AL,34.057592,-87.548639
"McDonald Chapel",AL,33.518576,-86.938462
"Macedonia",AL,33.403139,-88.239221
"McIntosh",AL,31.264957,-88.028369
"McKenzie",AL,31.54647,-86.725954
"McMullen",AL,33.1481,-88.175749
"Madison",AL,34.710533,-86.76228
"Madrid",AL,31.035771,-85.397845
"Magnolia Springs",AL,30.40341,-87.775895
"Malcolm",AL,31.198697,-88.001065
"Malvern",AL,31.143698,-85.522973
"Maplesville",AL,32.788282,-86.876651
"Marbury",AL,32.684059,-86.476141
"Margaret",AL,33.67284,-86.463942
"Marion",AL,32.631968,-87.317333
"Maytown",AL,33.549016,-86.999872
"Meadowbrook",AL,33.390614,-86.708172
"Megargel",AL,31.378141,-87.430649
"Memphis",AL,33.137044,-88.305942
"Mentone",AL,34.563191,-85.589706
"Meridianville",AL,34.874913,-86.580559
"Midfield",AL,33.455197,-86.922633
"Midland",AL,31.315688,-85.493684
"Midway",AL,32.076373,-85.524417
"Mignon",AL,33.18658,-86.256886
"Millbrook",AL,32.501474,-86.373914
"Millerville",AL,33.191458,-85.929828
"Millport",AL,33.555935,-88.082382
"Millry",AL,31.621199,-88.327956
"Minor",AL,33.53895,-86.940261
"Mobile",AL,30.668426,-88.100226
"Monroeville",AL,31.516223,-87.327714
"Montevallo",AL,33.125869,-86.846924
"Montgomery",AL,32.347174,-86.266114
"Moody",AL,33.603426,-86.493789
"Moores Mill",AL,34.852143,-86.52038
"Mooresville",AL,34.626964,-86.879997
"Morris",AL,33.746735,-86.804438
"Morrison Crossroads",AL,33.417996,-85.488284
"Mosses",AL,32.188758,-86.679435
"Moulton",AL,34.488302,-87.282707
"Moundville",AL,32.996542,-87.627545
"Mountain Brook",AL,33.491488,-86.73447
"Mount Olive",AL,33.078474,-86.133291
"Mount Olive",AL,33.677474,-86.872596
"Mount Vernon",AL,31.087727,-88.013166
"Movico",AL,31.062763,-88.026619
"Mulga",AL,33.552891,-86.973293
"Munford",AL,33.529059,-85.952543
"Muscle Shoals",AL,34.742657,-87.633767
"Myrtlewood",AL,32.252088,-87.949261
"Nanafalia",AL,32.111393,-87.995757
"Nances Creek",AL,33.85465,-85.684728
"Napier Field",AL,31.314917,-85.454962
"Natural Bridge",AL,34.090353,-87.601409
"Nauvoo",AL,33.984386,-87.48544
"Nectar",AL,33.979779,-86.620614
"Needham",AL,31.987,-88.336563
"Newbern",AL,32.591672,-87.535614
"New Brockton",AL,31.367723,-85.92518
"New Hope",AL,34.537972,-86.412372
"New Market",AL,34.892335,-86.425818
"New Site",AL,33.026041,-85.784536
"Newton",AL,31.341229,-85.588307
"New Union",AL,34.133682,-86.228002
"Newville",AL,31.420604,-85.33669
"North Courtland",AL,34.680046,-87.305721
"North Johns",AL,33.368055,-87.100888
"Northport",AL,33.257718,-87.596388
"Notasulga",AL,32.555409,-85.668577
"Oak Grove",AL,33.190359,-86.303727
"Oak Hill",AL,31.92162,-87.085234
"Oakman",AL,33.714322,-87.388699
"Odenville",AL,33.700875,-86.423371
"Ohatchee",AL,33.789764,-86.029055
"Oneonta",AL,33.947082,-86.48951
"Onycha",AL,31.225693,-86.276024
"Opelika",AL,32.660739,-85.37889
"Opp",AL,31.284375,-86.257442
"Orange Beach",AL,30.293811,-87.58596
"Orrville",AL,32.306769,-87.245447
"Our",AL,32.842211,-85.967035
"Owens Cross Roads",AL,34.585458,-86.455027
"Oxford",AL,33.598433,-85.872336
"Ozark",AL,31.451615,-85.645035
"Paint Rock",AL,34.660934,-86.333952
"Panola",AL,32.946819,-88.262264
"Parrish",AL,33.732321,-87.280127
"Pelham",AL,33.32183,-86.742197
"Pell",AL,33.560776,-86.26879
"Pennington",AL,32.20696,-88.055777
"Penton",AL,33.009832,-85.474824
"Perdido Beach",AL,30.353879,-87.504788
"Peterman",AL,31.583669,-87.263042
"Petrey",AL,31.85216,-86.204007
"Phenix",AL,32.461669,-85.025021
"Phil Campbell",AL,34.351539,-87.706319
"Pickensville",AL,33.235782,-88.289443
"Piedmont",AL,33.926035,-85.615442
"Pike Road",AL,32.311887,-86.033007
"Pinckard",AL,31.318989,-85.537836
"Pine Apple",AL,31.872155,-86.989059
"Pine Hill",AL,31.985884,-87.587516
"Pine Level",AL,32.579542,-86.454318
"Pine Ridge",AL,34.44795,-85.784018
"Pinson",AL,33.703291,-86.669741
"Pisgah",AL,34.684366,-85.84601
"Pleasant Grove",AL,33.493605,-86.978206
"Pleasant Groves",AL,34.737619,-86.197637
"Point Clear",AL,30.494676,-87.909991
"Pollard",AL,31.023877,-87.172978
"Powell",AL,34.532534,-85.897879
"Prattville",AL,32.461908,-86.457385
"Priceville",AL,34.524483,-86.881676
"Prichard",AL,30.773337,-88.131418
"Providence",AL,32.342386,-87.776115
"Putnam",AL,32.018084,-88.033057
"Ragland",AL,33.748325,-86.135927
"Rainbow",AL,33.928777,-86.084228
"Rainsville",AL,34.494364,-85.836505
"Ranburne",AL,33.525853,-85.339013
"Ray",AL,32.88923,-86.024612
"Red Bay",AL,34.436097,-88.136515
"Redland",AL,32.481426,-86.143759
"Red Level",AL,31.406711,-86.606217
"Redstone Arsenal",AL,34.687763,-86.661268
"Reece",AL,34.077307,-86.034461
"Reeltown",AL,32.574211,-85.819562
"Reform",AL,33.378214,-88.017297
"Rehobeth",AL,31.124507,-85.439607
"Repton",AL,31.409716,-87.238931
"Ridgeville",AL,34.056929,-86.102874
"River Falls",AL,31.352397,-86.544609
"Riverside",AL,33.616394,-86.204357
"Riverview",AL,31.061141,-87.077421
"Roanoke",AL,33.145305,-85.369526
"Robertsdale",AL,30.557139,-87.704723
"Rock Creek",AL,33.477227,-87.081249
"Rockford",AL,32.896866,-86.208345
"Rock Mills",AL,33.15994,-85.28107
"Rockville",AL,31.405776,-87.844212
"Rogersville",AL,34.827714,-87.284092
"Rosa",AL,33.992756,-86.500325
"Russellville",AL,34.505737,-87.728192
"Rutledge",AL,31.724072,-86.302008
"St. Florian",AL,34.86698,-87.623535
"St. Stephens",AL,31.571111,-88.052834
"Saks",AL,33.711401,-85.853698
"Samson",AL,31.112417,-86.046735
"Sand Rock",AL,34.2302,-85.771561
"Sanford",AL,31.29882,-86.398859
"Saraland",AL,30.834851,-88.101054
"Sardis",AL,34.172413,-86.119104
"Satsuma",AL,30.857874,-88.063383
"Scottsboro",AL,34.644641,-86.048205
"Section",AL,34.581644,-85.984942
"Selma",AL,32.41702,-87.035792
"Selmont-West Selmont",AL,32.378249,-87.006898
"Semmes",AL,30.758739,-88.223075
"Sheffield",AL,34.755494,-87.701265
"Shelby",AL,33.106882,-86.585403
"Shiloh",AL,34.463763,-85.877994
"Shoal Creek",AL,33.430763,-86.610925
"Shorter",AL,32.411509,-85.972756
"Silas",AL,31.767802,-88.325923
"Silverhill",AL,30.544644,-87.749201
"Sims Chapel",AL,31.249255,-88.142971
"Sipsey",AL,33.822119,-87.082918
"Skyline",AL,34.798524,-86.12243
"Slocomb",AL,31.112122,-85.598663
"Smiths Station",AL,32.534662,-85.111341
"Smoke Rise",AL,33.879942,-86.824683
"Snead",AL,34.119476,-86.389223
"Somerville",AL,34.467006,-86.795843
"Southside",AL,33.890841,-86.01802
"South Vinemont",AL,34.233907,-86.866026
"Spanish Fort",AL,30.722714,-87.865845
"Spring Garden",AL,33.972965,-85.555756
"Springville",AL,33.74472,-86.488817
"Spruce Pine",AL,34.39287,-87.729597
"Standing Rock",AL,33.08569,-85.239849
"Steele",AL,33.941378,-86.192107
"Sterrett",AL,33.442198,-86.461045
"Stevenson",AL,34.876797,-85.81435
"Stewartville",AL,33.075532,-86.260693
"Sulligent",AL,33.891189,-88.126633
"Sumiton",AL,33.749269,-87.046903
"Summerdale",AL,30.476741,-87.687561
"Susan Moore",AL,34.091999,-86.434156
"Sweet Water",AL,32.104903,-87.861185
"Sylacauga",AL,33.177974,-86.260238
"Sylvania",AL,34.562043,-85.80472
"Sylvan Springs",AL,33.528628,-87.031206
"Talladega",AL,33.431757,-86.099454
"Talladega Springs",AL,33.120452,-86.437761
"Tallassee",AL,32.532665,-85.891993
"Tarrant",AL,33.596495,-86.762522
"Taylor",AL,31.168757,-85.475808
"Theodore",AL,30.538686,-88.187573
"Thomaston",AL,32.268277,-87.623706
"Thomasville",AL,31.911088,-87.741856
"Thorsby",AL,32.918209,-86.719603
"Tibbie",AL,31.370471,-88.24386
"Tidmore Bend",AL,34.03249,-85.925319
"Tillmans Corner",AL,30.581533,-88.21278
"Town Creek",AL,34.671301,-87.407763
"Toxey",AL,31.910712,-88.309146
"Trafford",AL,33.819484,-86.746572
"Triana",AL,34.592663,-86.742875
"Trinity",AL,34.597263,-87.083806
"Troy",AL,31.80196,-85.96713
"Trussville",AL,33.655407,-86.563109
"Tuscaloosa",AL,33.234404,-87.5283
"Tuscumbia",AL,34.718502,-87.702586
"Tuskegee",AL,32.418209,-85.673314
"Twin",AL,33.992314,-87.852295
"Underwood-Petersville",AL,34.876112,-87.698157
"Union",AL,32.99381,-87.907179
"Union Grove",AL,34.406172,-86.451667
"Union Springs",AL,32.139506,-85.714623
"Uniontown",AL,32.446719,-87.48738
"Uriah",AL,31.307365,-87.499213
"Valley",AL,32.828953,-85.169386
"Valley Grande",AL,32.486872,-87.032773
"Valley Head",AL,34.556171,-85.622882
"Vance",AL,33.173992,-87.226627
"Vandiver",AL,33.458856,-86.529222
"Vernon",AL,33.758859,-88.114379
"Vestavia Hills",AL,33.462496,-86.739508
"Vina",AL,34.376175,-88.060572
"Vincent",AL,33.383145,-86.402544
"Vinegar Bend",AL,31.259093,-88.367264
"Vredenburgh",AL,31.823234,-87.318077
"Wadley",AL,33.1234,-85.568592
"Waldo",AL,33.387083,-86.041075
"Walnut Grove",AL,34.064595,-86.28717
"Warrior",AL,33.815214,-86.815273
"Waterloo",AL,34.917199,-88.064373
"Waverly",AL,32.730078,-85.570999
"Weaver",AL,33.761854,-85.810191
"Webb",AL,31.257252,-85.289817
"Wedowee",AL,33.308004,-85.4865
"Weogufka",AL,33.032235,-86.323775
"West Blocton",AL,33.118176,-87.125225
"West End-Cobb",AL,33.651453,-85.876528
"West Jefferson",AL,33.648529,-87.068
"Westover",AL,33.378305,-86.536849
"West Point",AL,34.23873,-86.964075
"Wetumpka",AL,32.540376,-86.206999
"Whatley",AL,31.646343,-87.710836
"White Hall",AL,32.297411,-86.715776
"White Plains",AL,33.759312,-85.68847
"Whitesboro",AL,34.169004,-86.058499
"Wilsonville",AL,33.240752,-86.491105
"Wilton",AL,33.081565,-86.879655
"Winfield",AL,33.931561,-87.791874
"Woodland",AL,33.375627,-85.397439
"Woodstock",AL,33.217312,-87.14841
"Woodville",AL,34.629576,-86.283461
"Yellow Bluff",AL,31.962139,-87.48072
"York",AL,32.500609,-88.291401
"Adak",AK,51.840182,-176.566001
"Akhiok",AK,56.948856,-154.215556
"Akiachak",AK,60.916162,-161.404695
"Akiak",AK,60.909982,-161.216376
"Akutan",AK,54.140014,-165.762992
"Alakanuk",AK,62.71116,-164.644712
"Alatna",AK,66.563929,-152.838002
"Alcan Border",AK,62.695606,-141.182741
"Aleknagik",AK,59.288961,-158.664343
"Aleneva",AK,58.059045,-152.909008
"Allakaket",AK,66.560261,-152.644967
"Ambler",AK,67.100657,-157.847803
"Anaktuvuk Pass",AK,68.154932,-151.705201
"Anchorage",AK,61.17425,-149.284329
"Anchor Point",AK,59.747364,-151.695697
"Anderson",AK,64.308281,-149.163187
"Angoon",AK,57.440851,-134.478015
"Aniak",AK,61.578035,-159.528754
"Anvik",AK,62.630995,-160.213725
"Arctic",AK,68.16542,-145.401329
"Atka",AK,52.213091,-174.215643
"Atmautluak",AK,60.861522,-162.279808
"Atqasuk",AK,70.480786,-157.325459
"Badger",AK,64.800081,-147.385129
"Barrow",AK,71.2535,-156.800072
"Bear Creek",AK,60.208055,-149.369783
"Beaver",AK,66.390584,-147.337916
"Beluga",AK,61.191031,-151.184378
"Bethel",AK,60.792998,-161.793477
"Bettles",AK,66.906318,-151.537737
"Big Delta",AK,64.156648,-145.740922
"Big Lake",AK,61.529768,-149.980916
"Birch Creek",AK,66.266519,-145.87382
"Brevig Mission",AK,65.34392,-166.508493
"Buckland",AK,65.975886,-161.138732
"Buffalo Soapstone",AK,61.685152,-149.120215
"Butte",AK,61.533727,-148.987706
"Cantwell",AK,63.411396,-148.749622
"Central",AK,65.48009,-144.478091
"Chalkyitsik",AK,66.646856,-143.788895
"Chase",AK,62.418236,-149.936172
"Chefornak",AK,60.15122,-164.251364
"Chena Ridge",AK,64.799021,-148.023779
"Chenega",AK,60.091902,-147.994693
"Chevak",AK,61.531066,-165.597199
"Chickaloon",AK,61.815261,-148.291983
"Chicken",AK,64.087658,-141.82813
"Chignik",AK,56.294355,-158.395644
"Chignik Lagoon",AK,56.304623,-158.49851
"Chignik Lake",AK,56.271969,-158.789108
"Chiniak",AK,57.574806,-152.283288
"Chisana",AK,62.110484,-142.048641
"Chistochina",AK,62.596444,-144.941045
"Chitina",AK,61.551904,-144.175849
"Chuathbaluk",AK,61.575539,-159.24707
"Circle",AK,65.838581,-144.17543
"Clam Gulch",AK,60.208902,-151.404202
"Clark's Point",AK,58.833381,-158.528799
"Coffman Cove",AK,56.001751,-132.841933
"Cohoe",AK,60.266971,-151.298172
"Cold Bay",AK,55.21579,-162.775829
"Coldfoot",AK,67.247451,-150.108051
"College",AK,64.870065,-147.807221
"Cooper Landing",AK,60.496223,-149.824072
"Copper Center",AK,61.984549,-145.354342
"Cordova",AK,60.530138,-145.642065
"Covenant Life",AK,59.397505,-136.123002
"Craig",AK,55.488233,-133.111069
"Crooked Creek",AK,61.796853,-158.081066
"Crown Point",AK,60.426679,-149.35298
"Deering",AK,66.069313,-162.76861
"Delta Junction",AK,64.060263,-145.693529
"Deltana",AK,63.789386,-145.351621
"Diamond Ridge",AK,59.708319,-151.545304
"Dillingham",AK,58.980556,-158.467569
"Diomede",AK,65.753769,-168.923151
"Dot Lake",AK,63.586914,-144.293082
"Dot Lake",AK,63.662262,-144.016014
"Dry Creek",AK,63.626638,-144.639194
"Eagle",AK,64.780117,-141.19332
"Eagle",AK,64.743383,-141.113825
"Edna Bay",AK,55.971212,-133.695861
"Eek",AK,60.21424,-162.030362
"Egegik",AK,58.205148,-157.521978
"Eielson AFB",AK,64.664101,-147.036297
"Ekwok",AK,59.345664,-157.488006
"Elfin Cove",AK,58.191175,-136.312524
"Elim",AK,64.618385,-162.273386
"Emmonak",AK,62.785183,-164.566301
"Ester",AK,64.879056,-148.041153
"Eureka Roadhouse",AK,61.958507,-147.155104
"Evansville",AK,66.932973,-151.368929
"Excursion Inlet",AK,58.414676,-135.345524
"Fairbanks",AK,64.836531,-147.651745
"False Pass",AK,54.872441,-163.334268
"Farmers Loop",AK,64.908224,-147.698661
"Farm Loop",AK,61.638456,-149.134043
"Ferry",AK,64.04962,-148.920602
"Fishhook",AK,61.73123,-149.283619
"Flat",AK,62.441367,-158.040533
"Fort Greely",AK,63.899565,-145.595225
"Fort Yukon",AK,66.587608,-145.229192
"Four Mile Road",AK,64.604233,-149.115264
"Fox",AK,64.975054,-147.608837
"Fox River",AK,59.894505,-151.007044
"Fritz Creek",AK,59.746871,-151.288599
"Funny River",AK,60.484437,-150.789658
"Gakona",AK,62.360782,-145.265669
"Galena",AK,64.729425,-156.872967
"Gambell",AK,63.777201,-171.72571
"Game Creek",AK,58.050105,-135.512547
"Gateway",AK,61.566573,-149.223038
"Glacier View",AK,61.848015,-147.772538
"Glennallen",AK,62.147313,-145.83616
"Goldstream",AK,64.951999,-147.970602
"Golovin",AK,64.563667,-163.001003
"Goodnews Bay",AK,59.128713,-161.575656
"Grayling",AK,62.896043,-160.112961
"Gulkana",AK,62.215183,-145.444886
"Gustavus",AK,58.434464,-135.728243
"Haines",AK,59.260527,-135.472262
"Halibut Cove",AK,59.569581,-151.223764
"Happy Valley",AK,59.910444,-151.608179
"Harding-Birch Lakes",AK,64.384531,-146.553715
"Healy",AK,63.959632,-148.970842
"Healy Lake",AK,64.010439,-144.678662
"Hobart Bay",AK,57.417759,-133.306571
"Hollis",AK,55.515474,-132.701922
"Holy Cross",AK,62.187016,-159.856068
"Homer",AK,59.647445,-151.513119
"Hoonah",AK,58.122421,-135.43277
"Hooper Bay",AK,61.536383,-166.122887
"Hope",AK,60.886124,-149.632991
"Houston",AK,61.61654,-149.771654
"Hughes",AK,66.044722,-154.237175
"Huslia",AK,65.719268,-156.297072
"Hydaburg",AK,55.20412,-132.818341
"Hyder",AK,55.983313,-130.041842
"Igiugig",AK,59.301224,-155.860899
"Iliamna",AK,59.812806,-154.842262
"Ivanof Bay",AK,55.918199,-159.493298
"Juneau",AK,58.37291,-134.178445
"Kachemak",AK,59.674483,-151.436778
"Kake",AK,56.977698,-133.904393
"Kaktovik",AK,70.121207,-143.629531
"Kalifornsky",AK,60.453398,-151.220304
"Kaltag",AK,64.313823,-158.779727
"Karluk",AK,57.590376,-154.364949
"Kasaan",AK,55.561295,-132.406618
"Kasigluk",AK,60.864056,-162.537863
"Kasilof",AK,60.319336,-151.232875
"Kenai",AK,60.562274,-151.207971
"Kenny Lake",AK,61.627171,-144.862976
"Ketchikan",AK,55.35721,-131.674894
"Kiana",AK,66.971322,-160.437625
"King Cove",AK,55.076809,-162.321123
"King Salmon",AK,58.735011,-156.529186
"Kipnuk",AK,59.936452,-164.061751
"Kivalina",AK,67.728579,-164.539688
"Klawock",AK,55.55643,-133.086264
"Klukwan",AK,59.399766,-135.886877
"Knik-Fairview",AK,61.49716,-149.654505
"Knik River",AK,61.461611,-149.00821
"Kobuk",AK,66.924092,-156.90468
"Kodiak",AK,57.792391,-152.404536
"Kodiak Station",AK,57.76795,-152.595907
"Kokhanok",AK,59.412874,-154.746661
"Koliganek",AK,59.696632,-157.224847
"Kongiganak",AK,59.964458,-162.883103
"Kotlik",AK,63.028752,-163.535727
"Kotzebue",AK,66.870452,-162.511447
"Koyuk",AK,64.939607,-161.151272
"Koyukuk",AK,64.902213,-157.694335
"Kupreanof",AK,56.821295,-132.972152
"Kwethluk",AK,60.793216,-161.43139
"Kwigillingok",AK,59.874234,-163.205541
"Lake Louise",AK,62.296945,-146.531845
"Lake Minchumina",AK,63.790143,-152.462128
"Lakes",AK,61.605218,-149.311468
"Larsen Bay",AK,57.551423,-154.00457
"Lazy Mountain",AK,61.657536,-148.928502
"Levelock",AK,59.08021,-156.905229
"Lime",AK,61.330481,-155.238328
"Livengood",AK,65.476506,-148.422784
"Loring",AK,55.606641,-131.639957
"Lowell Point",AK,60.076335,-149.492662
"Lower Kalskag",AK,61.515813,-160.357635
"Lutak",AK,59.412217,-135.589049
"McCarthy",AK,61.453957,-142.864693
"McGrath",AK,62.938077,-155.548556
"McKinley Park",AK,63.572867,-148.67344
"Manley Hot Springs",AK,65.018757,-150.645281
"Manokotak",AK,59.003787,-158.995258
"Marshall",AK,61.881176,-162.060923
"Meadow Lakes",AK,61.624118,-149.56229
"Mekoryuk",AK,60.370781,-166.266749
"Mendeltna",AK,62.145366,-146.75894
"Mentasta Lake",AK,63.015164,-143.539736
"Mertarvik",AK,60.810993,-164.49911
"Metlakatla",AK,55.114699,-131.555726
"Minto",AK,65.089635,-149.590211
"Moose Creek",AK,64.716369,-147.166627
"Moose Pass",AK,60.505936,-149.468361
"Mosquito Lake",AK,59.474558,-136.198132
"Mountain",AK,62.094448,-163.715339
"Mud Bay",AK,59.151183,-135.356493
"Nabesna",AK,62.495927,-143.007601
"Naknek",AK,58.787581,-156.892509
"Nanwalek",AK,59.326523,-151.923902
"Napakiak",AK,60.682928,-161.998779
"Napaskiak",AK,60.697563,-161.748916
"Naukati Bay",AK,55.876985,-133.18699
"Nelchina",AK,62.009856,-146.829712
"Nelson Lagoon",AK,55.836649,-161.635799
"Nenana",AK,64.54334,-149.071248
"New Allakaket",AK,66.538603,-152.621292
"Newhalen",AK,59.736763,-154.900779
"New Stuyahok",AK,59.485149,-157.30837
"Newtok",AK,60.935052,-164.645901
"Nightmute",AK,60.464237,-164.8361
"Nikiski",AK,60.725009,-151.225233
"Nikolaevsk",AK,59.829553,-151.596382
"Nikolai",AK,62.99852,-154.374567
"Nikolski",AK,53.007863,-168.718502
"Ninilchik",AK,60.061709,-151.406462
"Noatak",AK,67.589497,-163.010332
"Nome",AK,64.505736,-165.415307
"Nondalton",AK,59.976557,-154.863921
"Noorvik",AK,66.827912,-161.029217
"North Pole",AK,64.752728,-147.362655
"Northway",AK,62.959834,-141.837395
"Northway Junction",AK,63.024127,-141.791265
"Northway",AK,62.982258,-141.928056
"Nuiqsut",AK,70.217102,-150.995545
"Nulato",AK,64.689872,-158.28377
"Nunam Iqua",AK,62.506535,-164.900384
"Nunapitchuk",AK,60.882466,-162.463637
"Old Harbor",AK,57.220076,-153.330288
"Oscarville",AK,60.723428,-161.787508
"Ouzinkie",AK,57.924915,-152.463918
"Palmer",AK,61.597373,-149.114764
"Paxson",AK,62.975724,-145.758901
"Pedro Bay",AK,59.782161,-154.107931
"Pelican",AK,57.9598,-136.216754
"Perryville",AK,55.930603,-159.146786
"Petersburg",AK,56.754283,-132.873808
"Petersville",AK,62.452913,-150.883063
"Pilot Point",AK,57.543637,-157.719016
"Pilot Station",AK,61.946621,-162.878319
"Pitkas Point",AK,62.037393,-163.266822
"Platinum",AK,58.951278,-161.747491
"Pleasant Valley",AK,64.885434,-146.898609
"Point Baker",AK,56.348132,-133.616794
"Point Hope",AK,68.343731,-166.669369
"Point Lay",AK,69.737132,-162.835227
"Point MacKenzie",AK,61.355597,-150.16935
"Point Possession",AK,60.923081,-150.688844
"Pope-Vannoy Landing",AK,59.570602,-154.447236
"Portage Creek",AK,58.904908,-157.669052
"Port Alexander",AK,56.235218,-134.653499
"Port Alsworth",AK,60.157849,-154.340609
"Port Clarence",AK,65.109117,-166.764457
"Port Graham",AK,59.33979,-151.846501
"Port Heiden",AK,56.964177,-158.580635
"Port Lions",AK,57.877613,-152.865808
"Port Protection",AK,56.331881,-133.60642
"Primrose",AK,60.341624,-149.296448
"Prudhoe Bay",AK,70.36621,-148.745529
"Quinhagak",AK,59.756114,-161.890699
"Rampart",AK,65.404951,-149.920918
"Red Devil",AK,61.757561,-157.358451
"Red Dog Mine",AK,68.064411,-162.866869
"Ridgeway",AK,60.530983,-151.04435
"Ruby",AK,64.72236,-155.501433
"Russian Mission",AK,61.778737,-161.364257
"St. George",AK,56.592794,-169.624378
"St. Mary's",AK,62.065286,-163.249479
"St. Michael",AK,63.464293,-162.129902
"St. Paul",AK,57.179041,-170.325068
"Salamatof",AK,60.605183,-151.311782
"Salcha",AK,64.533781,-146.884277
"Sand Point",AK,55.313385,-160.483617
"Savoonga",AK,63.680766,-170.482782
"Saxman",AK,55.32282,-131.588969
"Scammon Bay",AK,61.842624,-165.583266
"Selawik",AK,66.590751,-160.001206
"Seldovia",AK,59.438699,-151.711985
"Seldovia",AK,59.461229,-151.588647
"Seward",AK,60.124786,-149.391581
"Shageluk",AK,62.666801,-159.531424
"Shaktoolik",AK,64.35904,-161.201019
"Shishmaref",AK,66.238717,-166.109292
"Shungnak",AK,66.887099,-157.16375
"Silver Springs",AK,62.018766,-145.354854
"Sitka",AK,57.193204,-135.367396
"Skagway",AK,59.46436,-135.275151
"Skwentna",AK,61.888689,-151.199994
"Slana",AK,62.6169,-143.519733
"Sleetmute",AK,61.653861,-157.10302
"Soldotna",AK,60.485318,-151.069014
"South Naknek",AK,58.660041,-156.98752
"South Van Horn",AK,64.809734,-147.787752
"Stebbins",AK,63.434606,-162.277666
"Steele Creek",AK,64.926612,-147.43509
"Sterling",AK,60.540533,-150.805849
"Stevens",AK,66.023707,-149.080314
"Stony River",AK,61.793081,-156.586967
"Sunrise",AK,60.870068,-149.467798
"Susitna",AK,61.54928,-150.726478
"Susitna North",AK,62.147533,-149.748667
"Sutton-Alpine",AK,61.741893,-148.874204
"Takotna",AK,62.982342,-156.084059
"Talkeetna",AK,62.271377,-150.084564
"Tanacross",AK,63.32806,-143.487087
"Tanaina",AK,61.657242,-149.427747
"Tanana",AK,65.184555,-152.054643
"Tatitlek",AK,60.893876,-146.669922
"Tazlina",AK,62.056379,-145.464129
"Teller",AK,65.251632,-166.350978
"Tenakee Springs",AK,57.790054,-135.135446
"Tetlin",AK,63.180949,-142.510382
"Thorne Bay",AK,55.667027,-132.535653
"Togiak",AK,59.040616,-160.431476
"Tok",AK,63.328852,-143.037543
"Toksook Bay",AK,60.52896,-165.105836
"Tolsona",AK,62.068635,-146.123116
"Tonsina",AK,61.530898,-145.110836
"Trapper Creek",AK,62.418184,-150.406369
"Tuluksak",AK,61.104273,-160.937572
"Tuntutuliak",AK,60.385009,-162.684337
"Tununak",AK,60.607081,-165.128294
"Twin Hills",AK,59.081901,-160.278572
"Two Rivers",AK,64.890845,-147.089884
"Tyonek",AK,61.1031,-151.385939
"Ugashik",AK,57.647527,-156.994899
"Unalakleet",AK,63.895578,-160.798136
"Unalaska",AK,53.910799,-166.527446
"Upper Kalskag",AK,61.539139,-160.348716
"Valdez",AK,61.083621,-146.317179
"Venetie",AK,67.020608,-146.375155
"Wainwright",AK,70.650082,-159.997161
"Wales",AK,65.614193,-168.081118
"Wasilla",AK,61.57524,-149.45684
"Whale Pass",AK,56.126699,-133.197685
"White Mountain",AK,64.681831,-163.411928
"Whitestone",AK,64.152838,-145.906385
"Whitestone Logging Camp",AK,58.06538,-135.420477
"Whittier",AK,60.776683,-148.664642
"Willow",AK,61.887028,-149.619671
"Willow Creek",AK,61.8634,-145.197307
"Wiseman",AK,67.481427,-150.160724
"Womens Bay",AK,57.688669,-152.677066
"Wrangell",AK,56.180779,-132.026788
"Yakutat",AK,59.563588,-139.606191
"Aguila",AZ,33.937516,-113.166483
"Ajo",AZ,32.392279,-112.883874
"Ak Chin",AZ,32.287326,-112.009078
"Ak-Chin",AZ,33.019628,-112.08079
"Alamo Lake",AZ,34.255851,-113.500313
"Ali Chuk",AZ,31.816919,-112.558394
"Ali Chukson",AZ,31.911528,-111.801625
"Ali Molina",AZ,31.902547,-111.780387
"Alpine",AZ,33.845523,-109.143696
"Amado",AZ,31.697358,-111.060803
"Anegam",AZ,32.374193,-112.034963
"Antares",AZ,35.422991,-113.808288
"Anthem",AZ,33.8467,-112.127014
"Apache Junction",AZ,33.398314,-111.535346
"Arivaca",AZ,31.574939,-111.292612
"Arivaca Junction",AZ,31.738973,-111.07377
"Arizona",AZ,32.750787,-111.670454
"Arizona",AZ,34.854836,-114.589339
"Arlington",AZ,33.334994,-112.774601
"Ash Fork",AZ,35.217188,-112.491303
"Avenue B and C",AZ,32.719042,-114.660049
"Avondale",AZ,33.313241,-112.328949
"Avra Valley",AZ,32.419517,-111.339266
"Aztec",AZ,32.808134,-113.44271
"Bagdad",AZ,34.577109,-113.177008
"Bear Flat",AZ,34.292399,-111.067383
"Beaver Dam",AZ,36.907098,-113.936313
"Beaver Valley",AZ,34.342896,-111.299929
"Benson",AZ,31.914497,-110.328552
"Beyerville",AZ,31.392024,-110.874919
"Bisbee",AZ,31.398036,-109.931834
"Bitter Springs",AZ,36.61177,-111.647495
"Black Canyon",AZ,34.070945,-112.122024
"Blackwater",AZ,33.049138,-111.585341
"Bluewater",AZ,34.170415,-114.262886
"Bouse",AZ,33.898438,-113.996245
"Bowie",AZ,32.324831,-109.484454
"Brenda",AZ,33.672082,-113.937883
"Bryce",AZ,32.925827,-109.823078
"Buckeye",AZ,33.432902,-112.64818
"Buckshot",AZ,32.740349,-114.483064
"Bullhead",AZ,35.127368,-114.555965
"Burnside",AZ,35.75336,-109.624792
"Bylas",AZ,33.127656,-110.114922
"Cactus Flats",AZ,32.76048,-109.721255
"Cactus Forest",AZ,32.957823,-111.316922
"Cameron",AZ,35.853193,-111.428585
"Campo Bonito",AZ,32.562885,-110.69843
"Camp Verde",AZ,34.569405,-111.857014
"Cane Beds",AZ,36.934154,-112.911788
"Canyon Day",AZ,33.781074,-110.037091
"Carefree",AZ,33.823195,-111.913378
"Carrizo",AZ,33.979354,-110.331096
"Casa Blanca",AZ,33.115452,-111.908087
"Casa Grande",AZ,32.907097,-111.76234
"Casas Adobes",AZ,32.34171,-111.010526
"Catalina",AZ,32.484899,-110.899634
"Catalina Foothills",AZ,32.301872,-110.884843
"Cave Creek",AZ,33.836219,-111.982084
"Cedar Creek",AZ,33.891395,-110.195691
"Centennial Park",AZ,36.953807,-112.981325
"Central",AZ,32.868055,-109.791341
"Central Heights-Midland",AZ,33.399978,-110.81527
"Chandler",AZ,33.282874,-111.854943
"Charco",AZ,32.247321,-112.600116
"Chiawuli Tak",AZ,31.940954,-111.776473
"Chilchinbito",AZ,36.491359,-110.049912
"Chinle",AZ,36.150994,-109.578311
"Chino Valley",AZ,34.739884,-112.406064
"Chloride",AZ,35.409702,-114.197242
"Christopher Creek",AZ,34.320666,-111.007141
"Chuichu",AZ,32.74033,-111.782192
"Cibecue",AZ,34.030367,-110.49196
"Cibola",AZ,33.374085,-114.676294
"Cienega Springs",AZ,34.199743,-114.21271
"Citrus Park",AZ,33.531775,-112.439811
"Clacks Canyon",AZ,35.220358,-114.0723
"Clarkdale",AZ,34.748195,-112.058559
"Claypool",AZ,33.406101,-110.841873
"Clay Springs",AZ,34.359259,-110.304334
"Clifton",AZ,33.029533,-109.284005
"Colorado",AZ,36.970109,-112.985312
"Comobabi",AZ,32.053847,-111.802885
"Concho",AZ,34.471563,-109.614025
"Congress",AZ,34.153175,-112.865555
"Coolidge",AZ,32.959618,-111.527518
"Copper Hill",AZ,33.430941,-110.746483
"Cordes Lakes",AZ,34.310275,-112.107302
"Cornfields",AZ,35.651343,-109.675763
"Cornville",AZ,34.738959,-111.908556
"Corona de Tucson",AZ,31.94948,-110.783645
"Cottonwood",AZ,36.072383,-109.890236
"Cottonwood",AZ,34.71939,-112.001372
"Cowlic",AZ,31.804747,-111.987629
"Crozier",AZ,35.422807,-113.648641
"Crystal Beach",AZ,34.571382,-114.392634
"Cutter",AZ,33.35838,-110.659327
"Dateland",AZ,32.820909,-113.541836
"Deer Creek",AZ,34.062342,-111.349481
"Del Muerto",AZ,36.18694,-109.434766
"Dennehotso",AZ,36.828998,-109.875694
"Desert Hills",AZ,34.54675,-114.378035
"Dewey-Humboldt",AZ,34.517438,-112.249771
"Dilkon",AZ,35.352905,-110.307232
"Dolan Springs",AZ,35.590453,-114.285179
"Doney Park",AZ,35.268671,-111.505285
"Donovan Estates",AZ,32.709354,-114.678223
"Douglas",AZ,31.399274,-109.541292
"Dragoon",AZ,32.026362,-110.036479
"Drexel Heights",AZ,32.144622,-111.048868
"Dripping Springs",AZ,33.104954,-110.755088
"Drysdale",AZ,32.645235,-114.706782
"Dudleyville",AZ,32.860011,-110.716494
"Duncan",AZ,32.749981,-109.0884
"Eagar",AZ,34.104946,-109.294863
"East Fork",AZ,33.8107,-109.920936
"East Globe",AZ,33.35121,-110.705266
"East Verde Estates",AZ,34.298272,-111.364552
"Ehrenberg",AZ,33.614207,-114.483003
"El Capitan",AZ,33.238343,-110.783288
"Elephant Head",AZ,31.765868,-110.992049
"Elfrida",AZ,31.683871,-109.696681
"Elgin",AZ,31.666552,-110.532704
"El Mirage",AZ,33.590224,-112.327102
"Eloy",AZ,32.741258,-111.594137
"El Prado Estates",AZ,32.706214,-114.521481
"First Mesa",AZ,35.831663,-110.368892
"Flagstaff",AZ,35.185212,-111.620698
"Florence",AZ,33.069367,-111.413992
"Flowing Springs",AZ,34.309304,-111.334731
"Flowing Wells",AZ,32.293351,-111.009706
"Fort Apache",AZ,33.790071,-109.988614
"Fort Defiance",AZ,35.746821,-109.068504
"Fort Mohave",AZ,35.000392,-114.574847
"Fort Thomas",AZ,33.030364,-109.961258
"Fortuna Foothills",AZ,32.661592,-114.397523
"Fort Valley",AZ,35.255416,-111.725274
"Fountain Hills",AZ,33.606701,-111.737015
"Franklin",AZ,32.677031,-109.072064
"Fredonia",AZ,36.963378,-112.519928
"Freedom Acres",AZ,34.319886,-111.305152
"Gadsden",AZ,32.556384,-114.781099
"Ganado",AZ,35.691873,-109.555729
"Geronimo Estates",AZ,34.369442,-111.361802
"Gila Bend",AZ,32.966241,-112.715463
"Gila Crossing",AZ,33.273019,-112.162661
"Gilbert",AZ,33.310345,-111.743121
"Gisela",AZ,34.101818,-111.288021
"Glendale",AZ,33.533111,-112.189901
"Globe",AZ,33.39408,-110.738557
"Gold Canyon",AZ,33.371483,-111.436942
"Golden Shores",AZ,34.781881,-114.477749
"Golden Valley",AZ,35.206066,-114.232753
"Goodyear",AZ,33.254031,-112.366472
"Goodyear",AZ,33.197325,-111.87239
"Grand Canyon",AZ,36.049231,-112.156627
"Grand Canyon West",AZ,36.004418,-113.804103
"Greasewood",AZ,35.52864,-109.860867
"Green Valley",AZ,31.831836,-111.025332
"Greer",AZ,34.005751,-109.460586
"Guadalupe",AZ,33.366453,-111.963175
"Gu Oidak",AZ,31.920576,-112.023532
"Hackberry",AZ,35.340096,-113.725629
"Haigler Creek",AZ,34.219634,-110.971427
"Haivana Nakya",AZ,32.005154,-111.712418
"Hard Rock",AZ,36.030238,-110.504157
"Hayden",AZ,32.994887,-110.779872
"Heber-Overgaard",AZ,34.414141,-110.569561
"Holbrook",AZ,34.904624,-110.16721
"Hondah",AZ,34.094297,-109.934383
"Hotevilla-Bacavi",AZ,35.920744,-110.640714
"Houck",AZ,35.269308,-109.22344
"Huachuca",AZ,31.63079,-110.342272
"Hunter Creek",AZ,34.305188,-111.017571
"Icehouse Canyon",AZ,33.34613,-110.801154
"Indian Wells",AZ,35.40925,-110.114439
"Jakes Corner",AZ,34.008251,-111.320203
"Jeddito",AZ,35.768199,-110.12782
"Jerome",AZ,34.74662,-112.10726
"Joseph",AZ,34.963693,-110.329039
"Kachina",AZ,35.092917,-111.693637
"Kaibab",AZ,36.879665,-112.725597
"Kaibito",AZ,36.592003,-111.107135
"Kaka",AZ,32.511375,-112.316694
"Katherine",AZ,35.22077,-114.561326
"Kayenta",AZ,36.717169,-110.260459
"Keams Canyon",AZ,35.820837,-110.203743
"Kearny",AZ,33.055967,-110.90819
"Kingman",AZ,35.216803,-114.016734
"Kino Springs",AZ,31.364128,-110.809745
"Klagetoh",AZ,35.499997,-109.530457
"Kohatk",AZ,32.578281,-112.003013
"Kohls Ranch",AZ,34.321053,-111.083855
"Komatke",AZ,33.295289,-112.16154
"Ko Vaya",AZ,32.081502,-111.895875
"Kykotsmovi",AZ,35.810245,-110.656849
"Lake Havasu",AZ,34.500134,-114.312245
"Lake Montezuma",AZ,34.636908,-111.800945
"Lake of the Woods",AZ,34.152512,-109.994567
"La Paz Valley",AZ,33.557783,-114.24344
"Lazy Y U",AZ,35.136913,-113.968463
"LeChee",AZ,36.860883,-111.424438
"Leupp",AZ,35.296609,-111.003626
"Linden",AZ,34.269472,-110.13637
"Litchfield Park",AZ,33.501761,-112.35947
"Littlefield",AZ,36.866273,-113.935838
"Littletown",AZ,32.130494,-110.872812
"Lower Santan",AZ,33.142753,-111.785319
"Low Mountain",AZ,35.948058,-110.100455
"Lukachukai",AZ,36.411233,-109.225538
"Lupton",AZ,35.35474,-109.052822
"McConnico",AZ,35.163604,-114.089798
"McNary",AZ,34.092151,-109.851386
"McNeal",AZ,31.610078,-109.658267
"Maish Vaya",AZ,32.170295,-112.134197
"Mammoth",AZ,32.723414,-110.644553
"Many Farms",AZ,36.342893,-109.637623
"Marana",AZ,32.465045,-111.139555
"Maricopa",AZ,33.045487,-112.015485
"Maricopa Colony",AZ,33.36259,-112.226809
"Martinez Lake",AZ,32.98642,-114.468337
"Mayer",AZ,34.423366,-112.240791
"Mead Ranch",AZ,34.34613,-111.142802
"Meadview",AZ,35.953156,-114.078871
"Mesa",AZ,33.401926,-111.717379
"Mesa del Caballo",AZ,34.285966,-111.295222
"Mescal",AZ,31.96743,-110.436582
"Mesquite Creek",AZ,34.960597,-114.571385
"Miami",AZ,33.395008,-110.872236
"Miracle Valley",AZ,31.3829,-110.148538
"Moccasin",AZ,36.909836,-112.754507
"Moenkopi",AZ,36.112484,-111.221242
"Mohave Valley",AZ,34.902431,-114.571389
"Mojave Ranch Estates",AZ,34.944901,-114.590643
"Morenci",AZ,33.052197,-109.326476
"Morristown",AZ,33.855876,-112.612858
"Mountainaire",AZ,35.093767,-111.645195
"Munds Park",AZ,34.919646,-111.613355
"Naco",AZ,31.345999,-109.927089
"Nazlini",AZ,35.911225,-109.474672
"Nelson",AZ,32.42981,-111.264924
"New Kingman-Butler",AZ,35.264487,-114.009081
"New River",AZ,33.882591,-112.086107
"Nogales",AZ,31.362463,-110.933538
"Nolic",AZ,32.034183,-111.955021
"North Fork",AZ,34.01057,-109.959543
"Nutrioso",AZ,33.951437,-109.205912
"Oak Springs",AZ,35.476055,-109.131765
"Oatman",AZ,35.027375,-114.38386
"Oljato-Monument Valley",AZ,36.98732,-110.209593
"Oracle",AZ,32.609207,-110.781782
"Orange Grove Mobile Manor",AZ,32.598451,-114.660588
"Oro Valley",AZ,32.422094,-110.976235
"Oxbow Estates",AZ,34.180335,-111.343012
"Padre Ranchitos",AZ,32.649591,-114.641584
"Page",AZ,36.941843,-111.513633
"Palominas",AZ,31.387556,-110.115065
"Paradise Valley",AZ,33.552157,-111.96133
"Parker",AZ,34.033963,-114.228159
"Parker Strip",AZ,34.270724,-114.129654
"Parks",AZ,35.285249,-111.967182
"Patagonia",AZ,31.544744,-110.745463
"Paulden",AZ,34.889889,-112.493777
"Payson",AZ,34.243893,-111.31884
"Peach Springs",AZ,35.53145,-113.43198
"Peeples Valley",AZ,34.277224,-112.765341
"Peoria",AZ,33.786196,-112.308015
"Peridot",AZ,33.30096,-110.452016
"Phoenix",AZ,33.572154,-112.090132
"Picacho",AZ,32.710189,-111.494188
"Picture Rocks",AZ,32.343275,-111.249365
"Pima",AZ,32.88156,-109.843764
"Pimaco Two",AZ,31.966573,-110.466286
"Pinal",AZ,33.379854,-110.757455
"Pine",AZ,34.380348,-111.460477
"Pinedale",AZ,34.320724,-110.259901
"Pine Lake",AZ,35.088699,-113.873929
"Pinetop Country Club",AZ,34.116335,-109.891035
"Pinetop-Lakeside",AZ,34.15148,-109.967507
"Pinion Pines",AZ,35.14663,-113.905814
"Pinon",AZ,36.098856,-110.219116
"Pirtleville",AZ,31.360894,-109.566052
"Pisinemo",AZ,32.034917,-112.319228
"Poston",AZ,33.99208,-114.404566
"Prescott",AZ,34.579298,-112.448396
"Prescott Valley",AZ,34.597696,-112.315585
"Quartzsite",AZ,33.667507,-114.217041
"Queen Creek",AZ,33.24083,-111.642876
"Queen Valley",AZ,33.273226,-111.317862
"Rainbow",AZ,33.873032,-109.976274
"Rancho Mesa Verde",AZ,32.594385,-114.655084
"Red Mesa",AZ,36.971111,-109.36982
"Red Rock",AZ,36.601117,-109.064539
"Red Rock",AZ,32.561182,-111.374004
"Rillito",AZ,32.415687,-111.154937
"Rincon Valley",AZ,32.112127,-110.687644
"Rio Rico",AZ,31.498168,-110.987798
"Rio Verde",AZ,33.726592,-111.675849
"Rock House",AZ,33.630654,-110.941078
"Rock Point",AZ,36.696848,-109.619491
"Roosevelt",AZ,33.657393,-111.127051
"Rough Rock",AZ,36.409489,-109.868403
"Round Rock",AZ,36.504256,-109.463156
"Round Valley",AZ,34.187758,-111.301801
"Rye",AZ,34.097775,-111.354263
"Sacate",AZ,33.141648,-111.981088
"Sacaton",AZ,33.079286,-111.768246
"Sacaton Flats",AZ,33.055897,-111.658992
"Saddlebrooke",AZ,32.54038,-110.85627
"Safford",AZ,32.832106,-109.701233
"Sahuarita",AZ,31.932071,-110.965097
"St. David",AZ,31.886037,-110.221485
"St. Johns",AZ,34.500368,-109.37691
"St. Johns",AZ,33.308487,-112.197381
"St. Michaels",AZ,35.660559,-109.096174
"Salome",AZ,33.777761,-113.606052
"San Carlos",AZ,33.344522,-110.477717
"Sanders",AZ,35.209558,-109.322378
"San Jose",AZ,32.817963,-109.5948
"San Luis",AZ,32.486434,-114.724142
"San Manuel",AZ,32.60603,-110.647113
"San Miguel",AZ,31.629493,-111.780134
"San Simon",AZ,32.267976,-109.23099
"Santa Cruz",AZ,33.232701,-112.159368
"San Tan Valley",AZ,33.187902,-111.547267
"Santa Rosa",AZ,32.332558,-112.046404
"Sawmill",AZ,35.894089,-109.157213
"Scenic",AZ,36.793589,-114.012752
"Scottsdale",AZ,33.684347,-111.86112
"Seba Dalkai",AZ,35.478933,-110.4511
"Second Mesa",AZ,35.851387,-110.49799
"Sedona",AZ,34.857401,-111.795356
"Sehili",AZ,36.280772,-109.185521
"Seligman",AZ,35.3256,-112.857246
"Sells",AZ,31.920874,-111.87087
"Seven Mile",AZ,33.788181,-109.958554
"Shongopovi",AZ,35.809701,-110.533441
"Shonto",AZ,36.587043,-110.662477
"Show Low",AZ,34.265109,-110.0383
"Sierra Vista",AZ,31.56541,-110.314508
"Sierra Vista Southeast",AZ,31.452512,-110.218977
"Six Shooter Canyon",AZ,33.366782,-110.774601
"Snowflake",AZ,34.521459,-110.091182
"So-Hi",AZ,35.252725,-114.141482
"Solomon",AZ,32.813811,-109.628931
"Somerton",AZ,32.60204,-114.695775
"Sonoita",AZ,31.66561,-110.639105
"South Komelik",AZ,31.714472,-111.774415
"South Tucson",AZ,32.195447,-110.969124
"Springerville",AZ,34.171921,-109.306892
"Spring Valley",AZ,34.353089,-112.151313
"Stanfield",AZ,32.879365,-111.962771
"Star Valley",AZ,34.254685,-111.220709
"Steamboat",AZ,35.752636,-109.850583
"Stotonic",AZ,33.152793,-111.816729
"Strawberry",AZ,34.403132,-111.497805
"Summerhaven",AZ,32.441596,-110.7766
"Summit",AZ,32.065728,-110.948662
"Sun",AZ,33.6155,-112.283108
"Sun",AZ,33.671383,-112.357187
"Sunizona",AZ,31.884058,-109.6329
"Sun Lakes",AZ,33.214955,-111.869973
"Sun Valley",AZ,34.982932,-110.031968
"Sunwest",AZ,33.650984,-113.409131
"Supai",AZ,36.229964,-112.692609
"Superior",AZ,33.285146,-111.1103
"Surprise",AZ,33.670612,-112.452674
"Sweet Water",AZ,33.12,-111.837866
"Swift Trail Junction",AZ,32.727193,-109.718114
"Tacna",AZ,32.700415,-113.961769
"Tanque Verde",AZ,32.268445,-110.744244
"Tat Momoli",AZ,32.601195,-111.886129
"Taylor",AZ,34.442748,-110.098534
"Teec Nos Pos",AZ,36.933283,-109.064119
"Tees Toh",AZ,35.485985,-110.405572
"Tempe",AZ,33.388414,-111.931782
"Thatcher",AZ,32.849292,-109.743179
"Theba",AZ,32.918231,-112.889776
"Three Points",AZ,32.059593,-111.286538
"Tolani Lake",AZ,35.430955,-110.84315
"Tolleson",AZ,33.448389,-112.256152
"Tombstone",AZ,31.723785,-110.064003
"Tonalea",AZ,36.321734,-110.966665
"Tonopah",AZ,33.487986,-112.930811
"Tonto Basin",AZ,33.842671,-111.300926
"Tonto",AZ,34.319808,-111.139313
"Topawa",AZ,31.807822,-111.830486
"Topock",AZ,34.719972,-114.478792
"Top-of-the-World",AZ,33.347668,-110.999724
"Toyei",AZ,35.703817,-109.938174
"Truxton",AZ,35.49067,-113.562284
"Tsaile",AZ,36.302418,-109.218666
"Tubac",AZ,31.610681,-111.057047
"Tuba",AZ,36.125013,-111.246742
"Tucson",AZ,32.153695,-110.871064
"Tucson Estates",AZ,32.179197,-111.125355
"Tumacacori-Carmen",AZ,31.57099,-111.047652
"Turkey Creek",AZ,33.801088,-109.9461
"Tusayan",AZ,35.954964,-112.120196
"Upper Santan",AZ,33.115252,-111.741859
"Utting",AZ,33.854415,-113.912864
"Vail",AZ,32.021702,-110.693687
"Vaiva Vo",AZ,32.716654,-111.926902
"Valencia West",AZ,32.134656,-111.111256
"Valentine",AZ,35.38853,-113.659115
"Valle",AZ,35.624454,-112.135121
"Valle Vista",AZ,35.410878,-113.86271
"Ventana",AZ,32.468048,-112.243447
"Verde",AZ,34.711987,-111.993997
"Vernon",AZ,34.247901,-109.689942
"Vicksburg",AZ,33.727157,-113.825943
"Village of Oak Creek (Big Park)",AZ,34.781269,-111.7606
"Wagon Wheel",AZ,34.195823,-110.023179
"Wahak Hotrontk",AZ,32.174739,-112.366291
"Wall Lane",AZ,32.657296,-114.71053
"Walnut Creek",AZ,35.131239,-114.126625
"Washington Park",AZ,34.400354,-111.271003
"Wellton",AZ,32.639962,-114.214008
"Wellton Hills",AZ,32.623189,-114.145234
"Wenden",AZ,33.832437,-113.543231
"Wet Camp",AZ,33.14136,-111.90045
"Wheatfields",AZ,33.470937,-110.816135
"Whetstone",AZ,31.701994,-110.322654
"Whispering Pines",AZ,34.372721,-111.281223
"Whitecone",AZ,35.604666,-110.080022
"White Hills",AZ,35.724209,-114.400368
"White Mountain Lake",AZ,34.344046,-109.986811
"Whiteriver",AZ,33.83976,-109.96077
"Why",AZ,32.258973,-112.730634
"Wickenburg",AZ,33.971354,-112.751645
"Wide Ruins",AZ,35.417387,-109.499551
"Wikieup",AZ,34.693034,-113.599504
"Wilhoit",AZ,34.408233,-112.615635
"Willcox",AZ,32.251646,-109.835734
"Williams",AZ,35.24664,-112.183296
"Williamson",AZ,34.708166,-112.534187
"Willow Canyon",AZ,32.38814,-110.700994
"Willow Valley",AZ,34.927669,-114.626595
"Window Rock",AZ,35.670505,-109.063037
"Winkelman",AZ,32.98154,-110.761533
"Winslow",AZ,35.025362,-110.710378
"Winslow West",AZ,35.000074,-110.700842
"Wintersburg",AZ,33.418697,-112.866536
"Wittmann",AZ,33.774957,-112.525091
"Woodruff",AZ,34.783195,-110.03787
"Yarnell",AZ,34.228248,-112.763062
"York",AZ,32.917425,-109.19605
"Young",AZ,34.124101,-110.938317
"Youngtown",AZ,33.584969,-112.304916
"Yucca",AZ,34.862993,-114.146145
"Yuma",AZ,32.516261,-114.521811
"Adona",AR,35.040021,-92.899059
"Alexander",AR,34.618168,-92.451289
"Alicia",AR,35.89441,-91.083164
"Allport",AR,34.53974,-91.783763
"Alma",AR,35.491894,-94.214147
"Almyra",AR,34.40568,-91.410729
"Alpena",AR,36.291896,-93.303384
"Altheimer",AR,34.325263,-91.849513
"Altus",AR,35.446082,-93.763892
"Amagon",AR,35.563186,-91.109424
"Amity",AR,34.266257,-93.46322
"Anthonyville",AR,35.039682,-90.340499
"Antoine",AR,34.034583,-93.421297
"Arkadelphia",AR,34.124085,-93.072607
"Arkansas",AR,33.608885,-91.20496
"Ashdown",AR,33.674529,-94.126627
"Ash Flat",AR,36.236433,-91.607223
"Atkins",AR,35.240863,-92.949643
"Aubrey",AR,34.719723,-90.898069
"Augusta",AR,35.285502,-91.361585
"Austin",AR,35.007269,-91.989211
"Avilla",AR,34.694843,-92.586141
"Avoca",AR,36.394541,-94.06578
"Bald Knob",AR,35.312508,-91.56976
"Banks",AR,33.575881,-92.267094
"Barling",AR,35.330253,-94.286423
"Bassett",AR,35.535807,-90.129303
"Batesville",AR,35.768572,-91.622652
"Bauxite",AR,34.559747,-92.499622
"Bay",AR,35.746057,-90.552143
"Bearden",AR,33.727945,-92.618432
"Beaver",AR,36.47628,-93.772886
"Beebe",AR,35.072433,-91.901059
"Beedeville",AR,35.424558,-91.114581
"Bella Vista",AR,36.468459,-94.273384
"Bellefonte",AR,36.199738,-93.04788
"Belleville",AR,35.091548,-93.445478
"Ben Lomond",AR,33.829333,-94.123392
"Benton",AR,34.577424,-92.572583
"Bentonville",AR,36.358176,-94.22912
"Bergman",AR,36.312786,-93.011221
"Berryville",AR,36.371374,-93.570472
"Bethel Heights",AR,36.220202,-94.116237
"Bigelow",AR,34.998163,-92.631107
"Big Flat",AR,36.006653,-92.410797
"Biggers",AR,36.331473,-90.805867
"Birdsong",AR,35.459451,-90.261527
"Black Oak",AR,35.83661,-90.3677
"Black Rock",AR,36.106237,-91.10748
"Black Springs",AR,34.45915,-93.71174
"Blevins",AR,33.871251,-93.578187
"Blue Eye",AR,36.496449,-93.397352
"Blue Mountain",AR,35.131796,-93.716666
"Bluff",AR,33.732599,-93.124564
"Blytheville",AR,35.934067,-89.905145
"Bodcaw",AR,33.563643,-93.393036
"Bonanza",AR,35.231875,-94.416197
"Bono",AR,35.908593,-90.79706
"Booneville",AR,35.139202,-93.918722
"Bradford",AR,35.422278,-91.455716
"Bradley",AR,33.099328,-93.657054
"Branch",AR,35.308303,-93.95537
"Briarcliff",AR,36.271925,-92.281916
"Brinkley",AR,34.89007,-91.189566
"Brookland",AR,35.905071,-90.579543
"Bryant",AR,34.617121,-92.489422
"Buckner",AR,33.35727,-93.435556
"Bull Shoals",AR,36.37357,-92.591504
"Burdette",AR,35.819126,-89.935729
"Cabot",AR,34.978662,-92.025831
"Caddo Valley",AR,34.180793,-93.084749
"Caldwell",AR,35.074794,-90.809455
"Cale",AR,33.627888,-93.232797
"Calico Rock",AR,36.122028,-92.125342
"Calion",AR,33.328406,-92.540187
"Camden",AR,33.567672,-92.849064
"Cammack",AR,34.780835,-92.345032
"Campbell Station",AR,35.66785,-91.253827
"Caraway",AR,35.759227,-90.322107
"Carlisle",AR,34.795425,-91.740494
"Carthage",AR,34.072548,-92.5555
"Casa",AR,35.024851,-93.045489
"Cash",AR,35.80087,-90.932071
"Caulksville",AR,35.301849,-93.867806
"Cave",AR,35.948431,-91.547294
"Cave Springs",AR,36.27184,-94.221741
"Cedarville",AR,35.583155,-94.362006
"Center Ridge",AR,35.380707,-92.575626
"Centerton",AR,36.356978,-94.297038
"Central",AR,35.336381,-94.238041
"Charleston",AR,35.295746,-94.044882
"Cherokee",AR,36.294696,-94.576797
"Cherokee",AR,36.291321,-91.569368
"Cherry Valley",AR,35.402027,-90.754503
"Chester",AR,35.677666,-94.177468
"Chidester",AR,33.701485,-93.023945
"Clarendon",AR,34.694725,-91.306124
"Clarkedale",AR,35.297316,-90.210435
"Clarksville",AR,35.453918,-93.481558
"Clinton",AR,35.578981,-92.455735
"Coal Hill",AR,35.436924,-93.666441
"College",AR,36.125354,-90.940033
"College Station",AR,34.706102,-92.232039
"Colt",AR,35.132799,-90.812869
"Concord",AR,35.661006,-91.838953
"Conway",AR,35.07435,-92.467078
"Corinth",AR,35.069508,-93.420089
"Corning",AR,36.410803,-90.585931
"Cotter",AR,36.281833,-92.521047
"Cotton Plant",AR,35.006074,-91.252034
"Cove",AR,34.439044,-94.425677
"Coy",AR,34.540497,-91.871088
"Crawfordsville",AR,35.226614,-90.324446
"Crossett",AR,33.128854,-91.963493
"Cushman",AR,35.865276,-91.779189
"Daisy",AR,34.235924,-93.739193
"Damascus",AR,35.367279,-92.410263
"Danville",AR,35.052457,-93.391199
"Dardanelle",AR,35.226305,-93.165909
"Datto",AR,36.393214,-90.728222
"Decatur",AR,36.341198,-94.451088
"Delaplaine",AR,36.230507,-90.725717
"Delight",AR,34.029462,-93.505345
"Dell",AR,35.859127,-90.026271
"Dennard",AR,35.747892,-92.550073
"Denning",AR,35.425137,-93.756804
"De Queen",AR,34.042245,-94.342133
"Dermott",AR,33.526206,-91.432296
"Des Arc",AR,34.976628,-91.506592
"De Valls Bluff",AR,34.785866,-91.461063
"DeWitt",AR,34.287357,-91.338308
"Diamond",AR,36.458421,-92.91275
"Diaz",AR,35.648773,-91.258933
"Dierks",AR,34.120662,-94.018836
"Donaldson",AR,34.234145,-92.918641
"Dover",AR,35.39127,-93.114293
"Dumas",AR,33.88479,-91.486337
"Dyer",AR,35.494697,-94.137777
"Dyess",AR,35.589377,-90.213333
"Earle",AR,35.273439,-90.464269
"East Camden",AR,33.607907,-92.742529
"East End",AR,34.554505,-92.327475
"Edmondson",AR,35.104541,-90.305134
"Egypt",AR,35.867942,-90.946034
"Elaine",AR,34.308574,-90.853346
"El Dorado",AR,33.217742,-92.664202
"Elkins",AR,36.016154,-94.018339
"Elm Springs",AR,36.202683,-94.218077
"Emerson",AR,33.097284,-93.19588
"Emmet",AR,33.722539,-93.466156
"England",AR,34.546101,-91.969011
"Enola",AR,35.196004,-92.206546
"Etowah",AR,35.715807,-90.230627
"Eudora",AR,33.119125,-91.263992
"Eureka Springs",AR,36.410774,-93.744904
"Evening Shade",AR,36.070285,-91.622128
"Everton",AR,36.15418,-92.909477
"Fairfield Bay",AR,35.601101,-92.266208
"Fargo",AR,34.95335,-91.176935
"Farmington",AR,36.036581,-94.252466
"Fayetteville",AR,36.071473,-94.166559
"Felsenthal",AR,33.060828,-92.149031
"Fifty-Six",AR,35.963509,-92.233388
"Fisher",AR,35.491312,-90.972619
"Flippin",AR,36.277448,-92.592734
"Fordyce",AR,33.818117,-92.417566
"Foreman",AR,33.719445,-94.397639
"Forrest",AR,35.010079,-90.787429
"Fort Smith",AR,35.347267,-94.370026
"Fouke",AR,33.261141,-93.886433
"Fountain Hill",AR,33.357652,-91.851096
"Fountain Lake",AR,34.614003,-92.919727
"Fourche",AR,34.993128,-92.618944
"Franklin",AR,36.176562,-91.780638
"Fredonia (Biscoe)",AR,34.818725,-91.410389
"Friendship",AR,34.224529,-93.003481
"Fulton",AR,33.612565,-93.813795
"Garfield",AR,36.45632,-93.975521
"Garland",AR,33.360849,-93.714162
"Garner",AR,35.142496,-91.779184
"Gassville",AR,36.28493,-92.486717
"Gateway",AR,36.485793,-93.938574
"Gentry",AR,36.258501,-94.490499
"Georgetown",AR,35.126442,-91.453502
"Gibson",AR,34.893704,-92.234827
"Gilbert",AR,35.990535,-92.717238
"Gillett",AR,34.119172,-91.379133
"Gillham",AR,34.168628,-94.312977
"Gilmore",AR,35.413994,-90.29558
"Glenwood",AR,34.328314,-93.527255
"Goshen",AR,36.102458,-94.001579
"Gosnell",AR,35.964745,-89.968457
"Gould",AR,33.98714,-91.564061
"Grady",AR,34.078962,-91.698129
"Grannis",AR,34.240109,-94.322139
"Gravette",AR,36.429413,-94.386327
"Greenbrier",AR,35.228841,-92.383639
"Green Forest",AR,36.334389,-93.427969
"Greenland",AR,36.004744,-94.184714
"Greenway",AR,36.340975,-90.222183
"Greenwood",AR,35.225819,-94.267255
"Greers Ferry",AR,35.574966,-92.165959
"Griffithville",AR,35.12447,-91.645719
"Grubbs",AR,35.654124,-91.075243
"Guion",AR,35.927103,-91.938513
"Gum Springs",AR,34.064095,-93.09556
"Gurdon",AR,33.914888,-93.155214
"Guy",AR,35.327944,-92.342389
"Hackett",AR,35.187832,-94.411532
"Hagarville",AR,35.515017,-93.332135
"Hamburg",AR,33.224818,-91.797376
"Hampton",AR,33.536238,-92.466023
"Hardy",AR,36.319302,-91.480005
"Harrell",AR,33.510123,-92.401072
"Harrisburg",AR,35.564409,-90.721238
"Harrison",AR,36.242183,-93.119826
"Hartford",AR,35.023457,-94.380708
"Hartman",AR,35.437147,-93.622394
"Haskell",AR,34.509238,-92.641861
"Hatfield",AR,34.484507,-94.37991
"Havana",AR,35.110056,-93.526128
"Haynes",AR,34.890933,-90.792662
"Hazen",AR,34.779817,-91.570176
"Heber Springs",AR,35.500503,-92.0333
"Hector",AR,35.462913,-92.97913
"Helena-West Helena",AR,34.533548,-90.62057
"Hensley",AR,34.51041,-92.209517
"Hermitage",AR,33.447964,-92.171628
"Hickory Ridge",AR,35.402628,-90.99433
"Higden",AR,35.566406,-92.20518
"Higginson",AR,35.195619,-91.714369
"Highfill",AR,36.274375,-94.323862
"Highland",AR,36.268767,-91.520093
"Hindsville",AR,36.146482,-93.860091
"Holiday Island",AR,36.482586,-93.71349
"Holland",AR,35.166051,-92.277081
"Holly Grove",AR,34.601503,-91.200272
"Hope",AR,33.667612,-93.591163
"Horatio",AR,33.942739,-94.356201
"Horseshoe Bend",AR,36.218726,-91.738324
"Horseshoe Lake",AR,34.913629,-90.307599
"Hot Springs",AR,34.489189,-93.049288
"Hot Springs",AR,34.64995,-92.967006
"Houston",AR,35.034952,-92.694591
"Hoxie",AR,36.036521,-90.973571
"Hughes",AR,34.949687,-90.468818
"Humnoke",AR,34.542304,-91.759996
"Humphrey",AR,34.422812,-91.702259
"Hunter",AR,35.054559,-91.122852
"Huntington",AR,35.081845,-94.266305
"Huntsville",AR,36.092507,-93.735333
"Huttig",AR,33.040411,-92.179833
"Imboden",AR,36.201936,-91.18075
"Jacksonport",AR,35.641833,-91.30802
"Jacksonville",AR,34.878455,-92.132186
"Jasper",AR,36.0105,-93.185469
"Jennette",AR,35.164874,-90.407868
"Jericho",AR,35.285781,-90.229272
"Jerome",AR,33.397915,-91.470406
"Johnson",AR,36.133854,-94.174269
"Joiner",AR,35.505889,-90.150105
"Jonesboro",AR,35.819733,-90.67905
"Judsonia",AR,35.276431,-91.641614
"Junction",AR,33.022117,-92.723646
"Keiser",AR,35.674001,-90.095544
"Kensett",AR,35.236006,-91.670362
"Keo",AR,34.609287,-92.011566
"Kibler",AR,35.426652,-94.236702
"Kingsland",AR,33.858099,-92.298147
"Kirby",AR,34.254291,-93.654873
"Knobel",AR,36.319923,-90.602456
"Knoxville",AR,35.37757,-93.361777
"Lafe",AR,36.209181,-90.504376
"LaGrange",AR,34.655672,-90.733886
"Lake",AR,35.81937,-90.453905
"Lake Hamilton",AR,34.427217,-93.089124
"Lakeview",AR,36.37405,-92.538831
"Lake View",AR,34.42116,-90.813314
"Lake",AR,33.32902,-91.285189
"Lamar",AR,35.444425,-93.394675
"Landmark",AR,34.608906,-92.322054
"Lavaca",AR,35.330258,-94.182862
"Leachville",AR,35.922939,-90.253942
"Lead Hill",AR,36.414768,-92.906979
"Leola",AR,34.170133,-92.591386
"Lepanto",AR,35.608101,-90.333336
"Leslie",AR,35.829508,-92.555961
"Letona",AR,35.363567,-91.829459
"Lewisville",AR,33.360132,-93.583971
"Lexa",AR,34.598585,-90.752233
"Lincoln",AR,35.948834,-94.417468
"Little Flock",AR,36.386245,-94.136766
"Little Rock",AR,34.725432,-92.358556
"Lockesburg",AR,33.973065,-94.179452
"London",AR,35.325621,-93.243595
"Lonoke",AR,34.790792,-91.907367
"Lonsdale",AR,34.544811,-92.810428
"Lost Bridge",AR,36.389694,-93.915559
"Louann",AR,33.391584,-92.792085
"Lowell",AR,36.255855,-94.153356
"Luxora",AR,35.758247,-89.929708
"Lynn",AR,36.004438,-91.251751
"McAlmont",AR,34.792827,-92.195755
"McCaskill",AR,33.919507,-93.636856
"McCrory",AR,35.25743,-91.197058
"McDougal",AR,36.43655,-90.390712
"McGehee",AR,33.627949,-91.395599
"McNab",AR,33.661414,-93.831793
"McNeil",AR,33.348248,-93.20853
"McRae",AR,35.113714,-91.826242
"Madison",AR,35.018001,-90.731142
"Magazine",AR,35.153617,-93.806363
"Magness",AR,35.703246,-91.482351
"Magnet Cove",AR,34.438325,-92.837488
"Magnolia",AR,33.276698,-93.226247
"Malvern",AR,34.369633,-92.819838
"Mammoth Spring",AR,36.49241,-91.541067
"Manila",AR,35.884495,-90.164175
"Mansfield",AR,35.0639,-94.234299
"Marianna",AR,34.773681,-90.767424
"Marie",AR,35.613188,-90.083482
"Marion",AR,35.204246,-90.206715
"Marked Tree",AR,35.527887,-90.426612
"Marmaduke",AR,36.189439,-90.385694
"Marshall",AR,35.908461,-92.646498
"Marvell",AR,34.556323,-90.915253
"Maumelle",AR,34.852344,-92.399995
"Mayflower",AR,34.980324,-92.419355
"Maynard",AR,36.422276,-90.902549
"Maysville",AR,36.401907,-94.588871
"Melbourne",AR,36.060979,-91.902107
"Mena",AR,34.580834,-94.237096
"Menifee",AR,35.149702,-92.55042
"Midland",AR,35.091995,-94.354112
"Midway",AR,36.39224,-92.475532
"Midway",AR,34.249821,-92.973481
"Mineral Springs",AR,33.876267,-93.921439
"Minturn",AR,35.975787,-91.027562
"Mitchellville",AR,33.905068,-91.498394
"Monette",AR,35.893433,-90.343106
"Monticello",AR,33.624768,-91.793712
"Montrose",AR,33.298509,-91.496825
"Moorefield",AR,35.767176,-91.57081
"Moro",AR,34.792129,-90.988
"Morrilton",AR,35.155456,-92.738932
"Morrison Bluff",AR,35.381953,-93.518836
"Mountainburg",AR,35.636005,-94.168083
"Mountain Home",AR,36.334519,-92.384596
"Mountain Pine",AR,34.569642,-93.171493
"Mountain View",AR,35.868267,-92.102045
"Mount Ida",AR,34.549153,-93.629939
"Mount Pleasant",AR,35.981492,-91.777317
"Mount Vernon",AR,35.223591,-92.124065
"Mulberry",AR,35.508517,-94.074754
"Murfreesboro",AR,34.064212,-93.690435
"Nashville",AR,33.940885,-93.851669
"Natural Steps",AR,34.874266,-92.497772
"Newark",AR,35.708405,-91.443392
"New Blaine",AR,35.29252,-93.419083
"New Edinburg",AR,33.756474,-92.240161
"Newport",AR,35.626804,-91.23472
"Nimmons",AR,36.306241,-90.095167
"Norfork",AR,36.209276,-92.274555
"Norman",AR,34.458994,-93.676822
"Norphlet",AR,33.320043,-92.662161
"North Crossett",AR,33.174113,-91.931736
"North Little Rock",AR,34.781873,-92.234937
"Oak Grove",AR,36.46375,-93.430321
"Oak Grove Heights",AR,36.126619,-90.504207
"Oakhaven",AR,33.729283,-93.620675
"Oden",AR,34.62316,-93.783663
"Ogden",AR,33.584152,-94.044735
"Oil Trough",AR,35.629415,-91.461073
"O'Kean",AR,36.171687,-90.818286
"Okolona",AR,34.000532,-93.33761
"Ola",AR,35.031448,-93.224035
"Omaha",AR,36.46167,-93.189959
"Oppelo",AR,35.100558,-92.773566
"Osceola",AR,35.694669,-89.992939
"Oxford",AR,36.209051,-91.919371
"Ozan",AR,33.846611,-93.720824
"Ozark",AR,35.503112,-93.833022
"Palestine",AR,34.967347,-90.903711
"Pangburn",AR,35.42608,-91.838741
"Paragould",AR,36.052257,-90.510937
"Paris",AR,35.289641,-93.722611
"Parkdale",AR,33.121168,-91.546471
"Parkin",AR,35.261175,-90.553508
"Patmos",AR,33.511335,-93.566703
"Patterson",AR,35.25913,-91.2353
"Peach Orchard",AR,36.28135,-90.661117
"Pea Ridge",AR,36.446651,-94.120807
"Perla",AR,34.364935,-92.776346
"Perry",AR,35.044755,-92.793451
"Perrytown",AR,33.69284,-93.537212
"Perryville",AR,35.012205,-92.802856
"Piggott",AR,36.385347,-90.201527
"Pindall",AR,36.06381,-92.86185
"Pine Bluff",AR,34.211591,-92.017555
"Pineville",AR,36.161111,-92.10642
"Piney",AR,34.502914,-93.144427
"Plainview",AR,34.989845,-93.298056
"Pleasant Plains",AR,35.553768,-91.628312
"Plumerville",AR,35.159377,-92.643059
"Pocahontas",AR,36.26357,-90.970231
"Pollard",AR,36.430045,-90.267464
"Portia",AR,36.084886,-91.071124
"Portland",AR,33.237765,-91.51113
"Pottsville",AR,35.230608,-93.060841
"Powhatan",AR,36.084722,-91.120734
"Poyen",AR,34.324437,-92.642019
"Prairie Creek",AR,36.329478,-94.058933
"Prairie Grove",AR,35.986113,-94.303389
"Prattsville",AR,34.318495,-92.543146
"Prescott",AR,33.80432,-93.391207
"Pyatt",AR,36.24968,-92.840923
"Quitman",AR,35.381854,-92.214364
"Ratcliff",AR,35.306946,-93.888636
"Ravenden",AR,36.23929,-91.247492
"Ravenden Springs",AR,36.312722,-91.223266
"Reader",AR,33.75161,-93.101184
"Rector",AR,36.264476,-90.293093
"Redfield",AR,34.443376,-92.183657
"Reed",AR,33.701862,-91.446138
"Reyno",AR,36.360867,-90.759102
"Rison",AR,33.959292,-92.193289
"Rockport",AR,34.406872,-92.80957
"Rockwell",AR,34.464341,-93.133829
"Roe",AR,34.631299,-91.385887
"Rogers",AR,36.315975,-94.154618
"Roland",AR,34.90224,-92.517469
"Rondo",AR,34.657506,-90.820884
"Rose Bud",AR,35.32118,-92.076519
"Rosston",AR,33.587994,-93.287006
"Rudy",AR,35.527549,-94.270343
"Russell",AR,35.361978,-91.509996
"Russellville",AR,35.276328,-93.138743
"Rye",AR,33.750471,-91.998492
"St. Charles",AR,34.373631,-91.137954
"St. Francis",AR,36.454989,-90.142392
"St. Joe",AR,36.026524,-92.801955
"St. Paul",AR,35.826802,-93.767303
"Salem",AR,36.372133,-91.824545
"Salem",AR,34.630899,-92.561492
"Salesville",AR,36.240803,-92.276531
"Scott",AR,34.69766,-92.093932
"Scranton",AR,35.360393,-93.537892
"Searcy",AR,35.241134,-91.735223
"Sedgwick",AR,35.975916,-90.866605
"Shannon Hills",AR,34.617533,-92.402019
"Sheridan",AR,34.321598,-92.443045
"Sherrill",AR,34.384618,-91.951588
"Sherwood",AR,34.845694,-92.200929
"Shirley",AR,35.642452,-92.312947
"Sidney",AR,36.004773,-91.658435
"Siloam Springs",AR,36.183622,-94.532663
"Smackover",AR,33.363981,-92.731169
"Smithville",AR,36.080413,-91.30262
"South Lead Hill",AR,36.394904,-92.905564
"Sparkman",AR,33.917296,-92.849991
"Springdale",AR,36.190066,-94.159434
"Springtown",AR,36.260285,-94.423812
"Stamps",AR,33.354959,-93.497879
"Star",AR,33.940575,-91.840237
"Staves",AR,34.033579,-92.280583
"Stephens",AR,33.420917,-93.06959
"Strawberry",AR,35.966615,-91.320091
"Strong",AR,33.107918,-92.359857
"Stuttgart",AR,34.49579,-91.548343
"Subiaco",AR,35.297367,-93.639439
"Success",AR,36.454413,-90.723064
"Sulphur Rock",AR,35.751623,-91.500105
"Sulphur Springs",AR,36.484076,-94.460095
"Sulphur Springs",AR,34.170789,-92.129852
"Summit",AR,36.252587,-92.68524
"Sunset",AR,35.224216,-90.205995
"Sweet Home",AR,34.667397,-92.246304
"Swifton",AR,35.824319,-91.12969
"Taylor",AR,33.099834,-93.461802
"Texarkana",AR,33.436339,-93.987118
"Thornton",AR,33.774876,-92.487651
"Tillar",AR,33.710917,-91.45222
"Tinsman",AR,33.629163,-92.353333
"Tollette",AR,33.818053,-93.897051
"Tontitown",AR,36.167388,-94.242127
"Traskwood",AR,34.452451,-92.666438
"Trumann",AR,35.676321,-90.522969
"Tuckerman",AR,35.724977,-91.20161
"Tull",AR,34.441214,-92.585881
"Tumbling Shoals",AR,35.547053,-91.96746
"Tupelo",AR,35.390992,-91.22993
"Turrell",AR,35.374609,-90.270384
"Twin Groves",AR,35.329185,-92.405561
"Tyronza",AR,35.486981,-90.355938
"Ulm",AR,34.57628,-91.46173
"Valley Springs",AR,36.154027,-92.98989
"Van Buren",AR,35.446542,-94.35301
"Vandervoort",AR,34.379781,-94.364919
"Victoria",AR,35.757413,-90.060122
"Vilonia",AR,35.078761,-92.215421
"Viola",AR,36.39922,-91.987009
"Wabbaseka",AR,34.357378,-91.792903
"Waldenburg",AR,35.56525,-90.934585
"Waldo",AR,33.352813,-93.294711
"Waldron",AR,34.90102,-94.095464
"Walnut Ridge",AR,36.084264,-90.946558
"Ward",AR,35.012987,-91.957405
"Warren",AR,33.611829,-92.067718
"Washington",AR,33.773003,-93.683447
"Watson",AR,33.893851,-91.25727
"Weiner",AR,35.619764,-90.905469
"Weldon",AR,35.447685,-91.23156
"West Crossett",AR,33.148043,-92.016978
"Western Grove",AR,36.101197,-92.954676
"West Fork",AR,35.934924,-94.18111
"West Memphis",AR,35.149554,-90.199266
"West Point",AR,35.203304,-91.6098
"Wheatley",AR,34.919913,-91.105371
"Whelen Springs",AR,33.832999,-93.126023
"White Hall",AR,34.275179,-92.100649
"Wickes",AR,34.299736,-94.327252
"Widener",AR,35.022132,-90.681357
"Wiederkehr",AR,35.478635,-93.764336
"Williford",AR,36.251826,-91.360094
"Willisville",AR,33.516119,-93.293723
"Wilmar",AR,33.626492,-91.928983
"Wilmot",AR,33.062817,-91.583923
"Wilson",AR,35.565961,-90.0418
"Wilton",AR,33.738551,-94.147993
"Winchester",AR,33.774039,-91.473822
"Winslow",AR,35.801513,-94.131745
"Winthrop",AR,33.830765,-94.354252
"Woodlawn",AR,33.966736,-92.045239
"Woodson",AR,34.539726,-92.222549
"Wooster",AR,35.199729,-92.450351
"Wrightsville",AR,34.620383,-92.219522
"Wynne",AR,35.235287,-90.788362
"Yarborough Landing",AR,33.718823,-94.008904
"Yellville",AR,36.228846,-92.686123
"Zinc",AR,36.283964,-92.914424
"Acalanes Ridge",CA,37.904722,-122.078574
"Acampo",CA,38.173529,-121.279892
"Acton",CA,34.496259,-118.183891
"Adelanto",CA,34.585975,-117.442863
"Adin",CA,41.199312,-120.956779
"Agoura Hills",CA,34.148942,-118.76393
"Agua Dulce",CA,34.504593,-118.316384
"Aguanga",CA,33.452246,-116.85547
"Ahwahnee",CA,37.365224,-119.7193
"Airport",CA,37.631584,-120.977328
"Alameda",CA,37.741911,-122.259914
"Alamo",CA,37.854598,-122.012995
"Albany",CA,37.89065,-122.318116
"Albion",CA,39.225326,-123.757584
"Alderpoint",CA,40.161343,-123.615739
"Alhambra",CA,34.083571,-118.136444
"Alhambra Valley",CA,37.966588,-122.131898
"Aliso Viejo",CA,33.579219,-117.728915
"Alleghany",CA,39.46666,-120.841124
"Allendale",CA,38.442986,-121.98333
"Allensworth",CA,35.849878,-119.389209
"Almanor",CA,40.214494,-121.17622
"Alondra Park",CA,33.890508,-118.335478
"Alpaugh",CA,35.88765,-119.487321
"Alpine",CA,32.842286,-116.756044
"Alpine",CA,38.785529,-119.80089
"Alta",CA,39.215685,-120.798509
"Altadena",CA,34.192212,-118.135589
"Alta Sierra",CA,39.126174,-121.049085
"Alto",CA,37.905581,-122.518718
"Alturas",CA,41.492643,-120.547011
"Alum Rock",CA,37.3694,-121.823931
"Amador",CA,38.41895,-120.823548
"American Canyon",CA,38.175465,-122.260201
"Amesti",CA,36.959483,-121.781739
"Anaheim",CA,33.855497,-117.760071
"Anchor Bay",CA,38.812653,-123.570267
"Anderson",CA,40.450596,-122.296304
"Angels",CA,38.071037,-120.551729
"Angwin",CA,38.577875,-122.451224
"Antelope",CA,38.715325,-121.36096
"Antioch",CA,37.977541,-121.797618
"Anza",CA,33.566298,-116.696495
"Apple Valley",CA,34.533376,-117.210358
"Aptos",CA,36.991147,-121.892758
"Aptos Hills-Larkin Valley",CA,36.954526,-121.821371
"Arbuckle",CA,39.014195,-122.06105
"Arcadia",CA,34.132689,-118.036347
"Arcata",CA,40.862286,-124.074958
"Arden-Arcade",CA,38.603364,-121.380087
"Armona",CA,36.317841,-119.705379
"Arnold",CA,38.249049,-120.349327
"Aromas",CA,36.874755,-121.630732
"Arroyo Grande",CA,35.124305,-120.584854
"Artesia",CA,33.867593,-118.080635
"Artois",CA,39.633179,-122.189758
"Arvin",CA,35.194361,-118.830569
"Ashland",CA,37.694161,-122.11592
"Aspen Springs",CA,37.548791,-118.699663
"Atascadero",CA,35.485821,-120.689675
"Atherton",CA,37.457072,-122.201058
"Atwater",CA,37.354049,-120.597177
"Auberry",CA,37.08071,-119.496433
"Auburn",CA,38.895075,-121.076739
"Auburn Lake Trails",CA,38.886238,-120.979699
"August",CA,37.979574,-121.262454
"Avalon",CA,33.324039,-118.334606
"Avenal",CA,36.031181,-120.116023
"Avery",CA,38.19386,-120.379071
"Avilla Beach",CA,35.199277,-120.720698
"Avocado Heights",CA,34.036769,-118.001783
"Azusa",CA,34.138524,-117.912253
"Baker",CA,35.276918,-116.071735
"Bakersfield",CA,35.353547,-119.034875
"Baldwin Park",CA,34.082824,-117.971286
"Ballard",CA,34.630473,-120.111782
"Ballico",CA,37.451917,-120.703707
"Bangor",CA,39.376087,-121.411654
"Banning",CA,33.946032,-116.899241
"Barstow",CA,34.866788,-117.043006
"Bass Lake",CA,37.327282,-119.565326
"Bay Point",CA,38.032742,-121.960958
"Bayview",CA,38.006234,-122.320165
"Bayview",CA,40.765335,-124.178605
"Beale AFB",CA,39.108061,-121.351215
"Bear Creek",CA,37.296601,-120.417676
"Bear Valley",CA,38.472319,-120.051845
"Bear Valley",CA,37.564883,-120.131226
"Bear Valley Springs",CA,35.1794,-118.625971
"Beaumont",CA,33.863083,-116.950461
"Beckwourth",CA,39.848248,-120.406695
"Belden",CA,40.006783,-121.248191
"Bell",CA,33.979704,-118.179249
"Bella Vista",CA,40.651672,-122.256513
"Bell Canyon",CA,34.208077,-118.687626
"Bellflower",CA,33.887821,-118.12725
"Bell Gardens",CA,33.964379,-118.154437
"Belmont",CA,37.514398,-122.294475
"Belvedere",CA,37.874366,-122.471618
"Benbow",CA,40.060267,-123.76538
"Bend",CA,40.255092,-122.210916
"Benicia",CA,38.069147,-122.1512
"Ben Lomond",CA,37.078196,-122.088116
"Benton",CA,37.843606,-118.4899
"Berkeley",CA,37.866972,-122.299147
"Bermuda Dunes",CA,33.7435,-116.287332
"Berry Creek",CA,39.631537,-121.405397
"Bertsch-Oceanview",CA,41.752377,-124.157662
"Bethel Island",CA,38.028939,-121.640521
"Beverly Hills",CA,34.07923,-118.402437
"Bieber",CA,41.126292,-121.135616
"Big Bear",CA,34.254118,-116.796378
"Big Bear Lake",CA,34.242958,-116.895891
"Big Bend",CA,41.011615,-121.930444
"Big Creek",CA,37.203565,-119.248489
"Biggs",CA,39.413291,-121.710076
"Big Lagoon",CA,41.159361,-124.129868
"Big Pine",CA,37.165507,-118.296262
"Big River",CA,34.139823,-114.362099
"Biola",CA,36.799938,-120.021038
"Bishop",CA,37.366381,-118.395808
"Blackhawk",CA,37.809677,-121.913141
"Blacklake",CA,35.049689,-120.538642
"Black Point-Green Point",CA,38.109893,-122.518376
"Blairsden",CA,39.775205,-120.610845
"Bloomfield",CA,38.322069,-122.834464
"Bloomington",CA,34.060353,-117.401463
"Blue Lake",CA,40.883443,-123.994875
"Bluewater",CA,34.175649,-114.267116
"Blythe",CA,33.653584,-114.621785
"Bodega",CA,38.348841,-122.971164
"Bodega Bay",CA,38.327506,-123.030022
"Bodfish",CA,35.574073,-118.481163
"Bolinas",CA,37.917725,-122.709502
"Bombay Beach",CA,33.354962,-115.730484
"Bonadelle Ranchos-Madera Ranchos",CA,36.984535,-119.874765
"Bonita",CA,32.673217,-117.006101
"Bonny Doon",CA,37.04348,-122.136848
"Bonsall",CA,33.274876,-117.191863
"Boonville",CA,39.011474,-123.374043
"Bootjack",CA,37.475221,-119.889663
"Boron",CA,35.01978,-117.665938
"Boronda",CA,36.694891,-121.67467
"Borrego Springs",CA,33.245398,-116.357035
"Bostonia",CA,32.819048,-116.942204
"Boulder Creek",CA,37.1341,-122.127208
"Boulevard",CA,32.664022,-116.289601
"Bowles",CA,36.608873,-119.752564
"Boyes Hot Springs",CA,38.312646,-122.488748
"Bradbury",CA,34.153159,-117.968818
"Bradley",CA,35.86284,-120.804267
"Brawley",CA,32.978702,-115.529914
"Brea",CA,33.928968,-117.861329
"Brentwood",CA,37.935905,-121.718547
"Bret Harte",CA,37.602067,-121.004381
"Bridgeport",CA,38.25557,-119.214245
"Brisbane",CA,37.67575,-122.383302
"Broadmoor",CA,37.691422,-122.48114
"Brookdale",CA,37.105732,-122.110627
"Brooktrails",CA,39.443283,-123.3938
"Buckhorn",CA,38.453122,-120.535468
"Buck Meadows",CA,37.81261,-120.065303
"Bucks Lake",CA,39.87956,-121.199081
"Buellton",CA,34.615497,-120.194237
"Buena Park",CA,33.857353,-118.007373
"Buena Vista",CA,38.297445,-120.917948
"Burbank",CA,34.190079,-118.326405
"Burbank",CA,37.321073,-121.930457
"Burlingame",CA,37.589952,-122.363342
"Burney",CA,40.889362,-121.675465
"Burnt Ranch",CA,40.811335,-123.508261
"Butte Creek Canyon",CA,39.74423,-121.707324
"Butte Meadows",CA,40.085361,-121.54231
"Butte Valley",CA,39.668804,-121.645889
"Buttonwillow",CA,35.409229,-119.440668
"Byron",CA,37.875517,-121.641825
"Bystrom",CA,37.619374,-120.981295
"Cabazon",CA,33.912495,-116.781414
"Calabasas",CA,34.134015,-118.669128
"Calexico",CA,32.684321,-115.494579
"California",CA,35.14659,-117.869346
"California Hot Springs",CA,35.886312,-118.656067
"California Pines",CA,41.413786,-120.66531
"Calimesa",CA,33.987332,-117.0542
"Calipatria",CA,33.168805,-115.48571
"Calistoga",CA,38.581408,-122.582696
"Callender",CA,35.047968,-120.57592
"Calpella",CA,39.233721,-123.19376
"Calpine",CA,39.663156,-120.439709
"Calwa",CA,36.71373,-119.761239
"Camanche North Shore",CA,38.244218,-120.953915
"Camanche",CA,38.266481,-120.986575
"Camarillo",CA,34.221983,-119.033072
"Cambria",CA,35.552479,-121.084527
"Cambrian Park",CA,37.256274,-121.928902
"Cameron Park",CA,38.674027,-120.988336
"Camino",CA,38.741163,-120.68158
"Camino Tassajara",CA,37.790873,-121.885035
"Campbell",CA,37.280232,-121.954352
"Camp Nelson",CA,36.141978,-118.61071
"Campo",CA,32.640967,-116.474516
"Camp Pendleton North",CA,33.319407,-117.319418
"Camp Pendleton South",CA,33.22822,-117.380801
"Camptonville",CA,39.452198,-121.048864
"Canby",CA,41.452233,-120.888291
"Cantua Creek",CA,36.500045,-120.316361
"Canyondam",CA,40.169939,-121.076839
"Canyon Lake",CA,33.688302,-117.263547
"Capitola",CA,36.976083,-121.954012
"Caribou",CA,40.073244,-121.16567
"Carlsbad",CA,33.123909,-117.282835
"Carmel-by-the-Sea",CA,36.552946,-121.921889
"Carmel Valley",CA,36.50116,-121.732154
"Carmet",CA,38.374452,-123.071859
"Carmichael",CA,38.634876,-121.324219
"Carnelian Bay",CA,39.235173,-120.078245
"Carpinteria",CA,34.385291,-119.500858
"Carrick",CA,41.446746,-122.363457
"Carson",CA,33.840367,-118.249574
"Cartago",CA,36.305239,-118.027166
"Caruthers",CA,36.539907,-119.845027
"Casa Conejo",CA,34.184617,-118.944354
"Casa de Oro-Mount Helix",CA,32.763971,-116.968798
"Casmalia",CA,34.837589,-120.531071
"Caspar",CA,39.363063,-123.804194
"Cassel",CA,40.925021,-121.548476
"Castaic",CA,34.48006,-118.632867
"Castle Hill",CA,37.872955,-122.057337
"Castro Valley",CA,37.709748,-122.062347
"Castroville",CA,36.764838,-121.753374
"Cathedral",CA,33.835487,-116.463103
"Catheys Valley",CA,37.456219,-120.09169
"Cayucos",CA,35.437806,-120.885591
"Cazadero",CA,38.527831,-123.109799
"Cedar Ridge",CA,38.065736,-120.273869
"Cedar Slope",CA,36.14356,-118.577133
"Cedarville",CA,41.528683,-120.174433
"Centerville",CA,36.736159,-119.495981
"Ceres",CA,37.595377,-120.962373
"Cerritos",CA,33.867743,-118.069472
"Chalfant",CA,37.492115,-118.390408
"Challenge-Brownsville",CA,39.464508,-121.263429
"Channel Islands Beach",CA,34.161093,-119.225277
"Charter Oak",CA,34.102483,-117.856315
"Cherokee",CA,39.650877,-121.533646
"Cherokee Strip",CA,35.469567,-119.261525
"Cherryland",CA,37.679159,-122.103765
"Cherry Valley",CA,33.979679,-116.969406
"Chester",CA,40.301675,-121.232503
"Chico",CA,39.755405,-121.81839
"Chilcoot-Vinton",CA,39.806744,-120.138859
"China Lake Acres",CA,35.640019,-117.766458
"Chinese Camp",CA,37.870215,-120.444225
"Chino",CA,33.974474,-117.657841
"Chino Hills",CA,33.942969,-117.725648
"Chowchilla",CA,37.113179,-120.230345
"Chualar",CA,36.571113,-121.510295
"Chula Vista",CA,32.62767,-117.01517
"Citrus",CA,34.110456,-117.893487
"Citrus Heights",CA,38.694778,-121.287993
"Claremont",CA,34.124925,-117.713923
"Clarksburg",CA,38.419333,-121.541619
"Clay",CA,38.314038,-121.159591
"Clayton",CA,37.94032,-121.930076
"Clear Creek",CA,40.307086,-121.0554
"Clearlake",CA,38.960045,-122.633232
"Clearlake Oaks",CA,39.020605,-122.656939
"Clearlake Riviera",CA,38.951383,-122.722243
"Cleone",CA,39.487857,-123.776069
"Clio",CA,39.754128,-120.566747
"Clipper Mills",CA,39.532424,-121.166552
"Cloverdale",CA,38.795962,-123.01537
"Clovis",CA,36.828955,-119.686594
"Clyde",CA,38.02537,-122.02806
"Coachella",CA,33.69102,-116.145098
"Coalinga",CA,36.133069,-120.339022
"Coarsegold",CA,37.252634,-119.699955
"Cobb",CA,38.835329,-122.722435
"Coffee Creek",CA,41.079673,-122.716906
"Cohasset",CA,39.902714,-121.744821
"Cold Springs",CA,38.746784,-120.876113
"Cold Springs",CA,38.161335,-120.053527
"Coleville",CA,38.583286,-119.515954
"Colfax",CA,39.093805,-120.953219
"College",CA,39.006303,-122.006829
"Collierville",CA,38.212963,-121.265128
"Colma",CA,37.67669,-122.452682
"Coloma",CA,38.802616,-120.894635
"Colton",CA,34.054525,-117.325029
"Columbia",CA,38.030026,-120.415907
"Colusa",CA,39.20489,-122.009575
"Commerce",CA,33.994523,-118.149952
"Comptche",CA,39.265134,-123.589715
"Compton",CA,33.894047,-118.227469
"Concord",CA,37.972189,-122.001617
"Concow",CA,39.770316,-121.513493
"Contra Costa Centre",CA,37.925964,-122.053978
"Copperopolis",CA,37.936675,-120.627704
"Corcoran",CA,36.084686,-119.561141
"Corning",CA,39.928199,-122.181993
"Corona",CA,33.862352,-117.563857
"Coronado",CA,32.657202,-117.156137
"Coronita",CA,33.875958,-117.611346
"Corralitos",CA,36.984181,-121.789329
"Corte Madera",CA,37.931846,-122.507738
"Costa Mesa",CA,33.665905,-117.912336
"Cotati",CA,38.328492,-122.710049
"Coto de Caza",CA,33.597037,-117.586484
"Cottonwood",CA,40.390427,-122.286097
"Coultervillle",CA,37.711924,-120.202351
"Country Club",CA,37.968036,-121.340482
"Courtland",CA,38.332911,-121.557026
"Covelo",CA,39.800187,-123.252601
"Covina",CA,34.090475,-117.882143
"Cowan",CA,37.559913,-120.989062
"Crescent",CA,41.764514,-124.200779
"Crescent Mills",CA,40.100703,-120.921694
"Cressey",CA,37.42103,-120.65569
"Crest",CA,32.800022,-116.867077
"Crestline",CA,34.254077,-117.286709
"Creston",CA,35.517097,-120.518136
"C-Road",CA,39.762709,-120.577035
"Crockett",CA,38.051939,-122.220151
"Cromberg",CA,39.868389,-120.690374
"Crowley Lake",CA,37.569387,-118.746649
"Crows Landing",CA,37.394738,-121.084359
"Cudahy",CA,33.964003,-118.182561
"Culver",CA,34.00582,-118.396781
"Cupertino",CA,37.319398,-122.044956
"Cutler",CA,36.526273,-119.288303
"Cutten",CA,40.765675,-124.144566
"Cuyama",CA,34.931057,-119.61488
"Cypress",CA,33.818477,-118.038307
"Daly",CA,37.700941,-122.464978
"Dana Point",CA,33.463259,-117.713017
"Danville",CA,37.812141,-121.969822
"Daphnedale Park",CA,41.507421,-120.553922
"Darwin",CA,36.268803,-117.589004
"Davenport",CA,37.018022,-122.197107
"Davis",CA,38.556147,-121.737793
"Day Valley",CA,37.025441,-121.855933
"Deer Park",CA,38.535076,-122.470108
"Del Aire",CA,33.916712,-118.369291
"Delano",CA,35.763183,-119.26356
"Delft Colony",CA,36.511881,-119.446496
"Delhi",CA,37.430599,-120.775899
"Delleker",CA,39.813251,-120.489671
"Del Mar",CA,32.962852,-117.262438
"Del Monte Forest",CA,36.583834,-121.946714
"Del Rey",CA,36.656216,-119.599324
"Del Rey Oaks",CA,36.582501,-121.829797
"Del Rio",CA,37.745561,-121.010761
"Denair",CA,37.525695,-120.799672
"Derby Acres",CA,35.244025,-119.603833
"Descanso",CA,32.869567,-116.628085
"Desert Center",CA,33.737799,-115.366622
"Desert Edge",CA,33.922289,-116.440092
"Desert Hot Springs",CA,33.957591,-116.542284
"Desert Palms",CA,33.779144,-116.298219
"Desert Shores",CA,33.403975,-116.040133
"Desert View Highlands",CA,34.590257,-118.15354
"Diablo",CA,37.840808,-121.956456
"Diablo Grande",CA,37.397433,-121.27944
"Diamond Bar",CA,34.001573,-117.817601
"Diamond Springs",CA,38.692138,-120.836509
"Dillon Beach",CA,38.243488,-122.955955
"Dinuba",CA,36.545353,-119.398873
"Discovery Bay",CA,37.907674,-121.597955
"Dixon",CA,38.447512,-121.824223
"Dixon Lane-Meadow Creek",CA,37.386388,-118.415273
"Dobbins",CA,39.35659,-121.210378
"Dogtown",CA,38.208667,-121.154809
"Dollar Point",CA,39.190496,-120.108911
"Dorrington",CA,38.294369,-120.270062
"Dorris",CA,41.964965,-121.920387
"Dos Palos",CA,36.985428,-120.633843
"Dos Palos Y",CA,37.046767,-120.639473
"Douglas",CA,40.680917,-122.924096
"Downey",CA,33.938237,-118.130856
"Downieville",CA,39.578643,-120.816405
"Doyle",CA,40.027223,-120.11537
"Drytown",CA,38.438231,-120.85653
"Duarte",CA,34.160911,-117.950528
"Dublin",CA,37.716154,-121.896233
"Ducor",CA,35.894259,-119.045605
"Dunnigan",CA,38.892641,-121.974182
"Dunsmuir",CA,41.231485,-122.270916
"Durham",CA,39.629358,-121.79077
"Dustin Acres",CA,35.215929,-119.374987
"Dutch Flat",CA,39.208008,-120.834476
"Eagleville",CA,41.319026,-120.114604
"Earlimart",CA,35.88238,-119.271477
"East Foothills",CA,37.382618,-121.813752
"East Hemet",CA,33.730124,-116.941044
"East Los Angeles",CA,34.031506,-118.168567
"East Nicolaus",CA,38.910047,-121.544322
"East Oakdale",CA,37.783108,-120.811277
"Easton",CA,36.652391,-119.790786
"East Orosi",CA,36.548069,-119.259853
"East Palo Alto",CA,37.46778,-122.13255
"East Pasadena",CA,34.136798,-118.077535
"East Porterville",CA,36.056872,-118.97126
"East Quincy",CA,39.916423,-120.918934
"East Rancho Dominguez",CA,33.894834,-118.195588
"East Richmond Heights",CA,37.945081,-122.313907
"East San Gabriel",CA,34.119637,-118.080242
"East Shore",CA,40.245269,-121.076778
"East Sonora",CA,37.974304,-120.338076
"East Tulare Villa",CA,36.20356,-119.282169
"Eastvale",CA,33.963262,-117.580547
"East Whittier",CA,33.924373,-117.988726
"Edgewood",CA,41.460769,-122.425678
"Edmundson Acres",CA,35.227296,-118.823252
"Edna",CA,35.210785,-120.605967
"Edwards AFB",CA,34.902408,-117.921869
"El Cajon",CA,32.8017,-116.960379
"El Centro",CA,32.787325,-115.558006
"El Cerrito",CA,37.91963,-122.302516
"El Cerrito",CA,33.838186,-117.522205
"El Dorado Hills",CA,38.673971,-121.048842
"Eldridge",CA,38.333887,-122.506518
"El Granada",CA,37.514245,-122.465149
"Elizabeth Lake",CA,34.656488,-118.379847
"Elk Creek",CA,39.598678,-122.53232
"Elk Grove",CA,38.414621,-121.384961
"Elkhorn",CA,36.810673,-121.718699
"Elmira",CA,38.352328,-121.907719
"El Monte",CA,34.074633,-118.029136
"El Nido",CA,37.132376,-120.498551
"El Paso de Robles (Paso Robles)",CA,35.64074,-120.654268
"El Portal",CA,37.673974,-119.806539
"El Rancho",CA,36.220589,-119.06886
"El Rio",CA,34.245286,-119.156834
"El Segundo",CA,33.917145,-118.401554
"El Sobrante",CA,37.980052,-122.306811
"El Sobrante",CA,33.872534,-117.462541
"El Verano",CA,38.297457,-122.491559
"Elverta",CA,38.718464,-121.445475
"Emerald Lake Hills",CA,37.465282,-122.265898
"Emeryville",CA,37.839907,-122.298964
"Empire",CA,37.642901,-120.90422
"Encinitas",CA,33.050632,-117.263616
"Escalon",CA,37.791333,-120.999644
"Escondido",CA,33.133053,-117.074043
"Esparto",CA,38.69341,-122.024047
"Etna",CA,41.458199,-122.895819
"Eucalyptus Hills",CA,32.885177,-116.944983
"Eureka",CA,40.793476,-124.155274
"Exeter",CA,36.294006,-119.145928
"Fairbanks Ranch",CA,32.991596,-117.186611
"Fairfax",CA,37.988378,-122.595097
"Fairfield",CA,38.256757,-122.039719
"Fairmead",CA,37.078388,-120.196157
"Fair Oaks",CA,38.650165,-121.250982
"Fairview",CA,37.677682,-122.044408
"Fallbrook",CA,33.374701,-117.221724
"Fall River Mills",CA,41.007241,-121.441134
"Farmersville",CA,36.305352,-119.208135
"Farmington",CA,37.929868,-121.004367
"Fellows",CA,35.178177,-119.54755
"Felton",CA,37.039221,-122.080473
"Ferndale",CA,40.579891,-124.261909
"Fetters Hot Springs-Agua Caliente",CA,38.327504,-122.487137
"Fiddletown",CA,38.509116,-120.760508
"Fieldbrook",CA,40.972512,-124.027909
"Fields Landing",CA,40.724236,-124.218603
"Fillmore",CA,34.398423,-118.916096
"Firebaugh",CA,36.854121,-120.45396
"Fish Camp",CA,37.482498,-119.640391
"Florence-Graham",CA,33.96772,-118.244386
"Florin",CA,38.483237,-121.404191
"Floriston",CA,39.392931,-120.015121
"Flournoy",CA,39.928357,-122.446164
"Folsom",CA,38.675957,-121.147656
"Fontana",CA,34.108793,-117.462685
"Foothill Farms",CA,38.686735,-121.347489
"Forbestown",CA,39.527584,-121.266222
"Ford",CA,35.164735,-119.4584
"Foresthill",CA,39.005289,-120.831366
"Forest Meadows",CA,38.166358,-120.405199
"Forest Ranch",CA,39.895179,-121.670485
"Forestville",CA,38.482491,-122.889884
"Fort Bidwell",CA,41.863301,-120.159395
"Fort Bragg",CA,39.441069,-123.80362
"Fort Irwin",CA,35.247701,-116.683411
"Fort Jones",CA,41.608452,-122.841066
"Fortuna",CA,40.585411,-124.142608
"Fort Washington",CA,36.879298,-119.761256
"Foster",CA,37.56482,-122.250782
"Fountain Valley",CA,33.710582,-117.951129
"Fowler",CA,36.624741,-119.673786
"Franklin",CA,37.327735,-120.532185
"Franklin",CA,38.367521,-121.461629
"Frazier Park",CA,34.814193,-118.954961
"Freedom",CA,36.940311,-121.796321
"Freeport",CA,38.462765,-121.502216
"Fremont",CA,37.494461,-121.94115
"French Camp",CA,37.868136,-121.271419
"French Gulch",CA,40.717688,-122.629379
"French Valley",CA,33.599461,-117.106495
"Fresno",CA,36.783603,-119.793445
"Friant",CA,36.984309,-119.711526
"Fruitdale",CA,37.311924,-121.935678
"Fruitridge Pocket",CA,38.532646,-121.455812
"Fuller Acres",CA,35.302254,-118.914295
"Fullerton",CA,33.885714,-117.928025
"Fulton",CA,38.493709,-122.773417
"Furnace Creek",CA,36.413194,-116.877755
"Galt",CA,38.266946,-121.304544
"Garberville",CA,40.100306,-123.794315
"Gardena",CA,33.894417,-118.307522
"Garden Acres",CA,37.963678,-121.229624
"Garden Farms",CA,35.415782,-120.614034
"Garden Grove",CA,33.778782,-117.960472
"Garey",CA,34.885821,-120.31375
"Garnet",CA,33.917884,-116.479621
"Gasquet",CA,41.836075,-123.976031
"Gazelle",CA,41.511898,-122.521967
"Georgetown",CA,38.911353,-120.834624
"Gerber",CA,40.061443,-122.148238
"Geyserville",CA,38.717354,-122.903648
"Gilroy",CA,37.006407,-121.585321
"Glendale",CA,34.181393,-118.24583
"Glendora",CA,34.144967,-117.847667
"Glen Ellen",CA,38.355369,-122.543877
"Golden Hills",CA,35.15133,-118.500657
"Gold Mountain",CA,39.761316,-120.519058
"Gold River",CA,38.626854,-121.249164
"Goleta",CA,34.434875,-119.857741
"Gonzales",CA,36.505979,-121.442918
"Good Hope",CA,33.770625,-117.277178
"Goodyears Bar",CA,39.552354,-120.893102
"Goshen",CA,36.351759,-119.421018
"Graeagle",CA,39.75484,-120.643811
"Grand Terrace",CA,34.031172,-117.313243
"Grangeville",CA,36.343898,-119.707467
"Granite Bay",CA,38.758782,-121.16695
"Granite Hills",CA,32.803422,-116.905571
"Graniteville",CA,39.444366,-120.73603
"Grass Valley",CA,39.223686,-121.055004
"Graton",CA,38.437517,-122.865988
"Grayson",CA,37.579542,-121.183684
"Greeley Hill",CA,37.758281,-120.130205
"Greenacres",CA,35.383131,-119.118341
"Green Acres",CA,33.734955,-117.078271
"Greenfield",CA,35.269161,-119.009996
"Greenfield",CA,36.32339,-121.24475
"Greenhorn",CA,39.902968,-120.758983
"Green Valley",CA,34.617415,-118.405023
"Green Valley",CA,38.26384,-122.162493
"Greenview",CA,41.544922,-122.920964
"Greenville",CA,40.133593,-120.945316
"Grenada",CA,41.6401,-122.526627
"Gridley",CA,39.362169,-121.697085
"Grimes",CA,39.074154,-121.898775
"Grizzly Flats",CA,38.635696,-120.535435
"Groveland",CA,37.827746,-120.243816
"Grover Beach",CA,35.120888,-120.619664
"Guadalupe",CA,34.961631,-120.573377
"Guerneville",CA,38.517165,-122.989897
"Guinda",CA,38.827457,-122.198493
"Gustine",CA,37.254514,-120.99487
"Hacienda Heights",CA,33.995853,-117.973023
"Half Moon Bay",CA,37.467314,-122.440474
"Hamilton Branch",CA,40.27725,-121.096092
"Hamilton",CA,39.742231,-122.012536
"Hanford",CA,36.325957,-119.653881
"Happy Camp",CA,41.815893,-123.392796
"Harbison Canyon",CA,32.82727,-116.838076
"Hardwick",CA,36.402596,-119.72077
"Hartland",CA,36.651816,-118.955295
"Hartley",CA,38.420393,-121.950842
"Hasley Canyon",CA,34.481599,-118.666689
"Hat Creek",CA,40.789806,-121.474515
"Hawaiian Gardens",CA,33.830482,-118.073451
"Hawthorne",CA,33.914775,-118.348083
"Hayfork",CA,40.575871,-123.123629
"Hayward",CA,37.628139,-122.106341
"Healdsburg",CA,38.622571,-122.865692
"Heber",CA,32.731826,-115.520363
"Hemet",CA,33.735226,-116.994604
"Herald",CA,38.28846,-121.231043
"Hercules",CA,38.021427,-122.288929
"Herlong",CA,40.141883,-120.139776
"Hermosa Beach",CA,33.865268,-118.396297
"Hesperia",CA,34.397038,-117.315198
"Hickman",CA,37.630697,-120.749817
"Hidden Hills",CA,34.163744,-118.661204
"Hidden Meadows",CA,33.223644,-117.119834
"Hidden Valley Lake",CA,38.801498,-122.551426
"Highgrove",CA,34.010577,-117.309838
"Highland",CA,34.113473,-117.165729
"Highlands-Baywood Park",CA,37.522644,-122.344765
"Hillsborough",CA,37.557241,-122.358695
"Hilmar-Irwin",CA,37.404541,-120.850423
"Hiouchi",CA,41.793664,-124.066113
"Hollister",CA,36.856374,-121.398127
"Holtville",CA,32.813781,-115.378319
"Home Garden",CA,36.302969,-119.637029
"Home Gardens",CA,33.878239,-117.511402
"Homeland",CA,33.745879,-117.113242
"Homestead Valley",CA,34.273019,-116.414529
"Homewood Canyon",CA,35.89004,-117.386414
"Honcut",CA,39.33259,-121.538755
"Hood",CA,38.369291,-121.515488
"Hopland",CA,38.96883,-123.116899
"Hornbrook",CA,41.904505,-122.558319
"Hornitos",CA,37.503387,-120.241968
"Hughson",CA,37.602546,-120.866083
"Humboldt Hill",CA,40.722321,-124.197393
"Huntington Beach",CA,33.690569,-118.00933
"Huntington Park",CA,33.979248,-118.217438
"Huron",CA,36.203978,-120.096178
"Hyampom",CA,40.626179,-123.46883
"Hydesville",CA,40.557875,-124.08225
"Idlewild",CA,35.809588,-118.670463
"Idyllwild-Pine Cove",CA,33.744209,-116.73069
"Imperial",CA,32.837503,-115.57186
"Imperial Beach",CA,32.565354,-117.114567
"Independence",CA,36.83031,-118.207855
"Indian Falls",CA,40.05875,-120.980314
"Indianola",CA,40.810022,-124.078433
"Indian Wells",CA,33.692217,-116.341248
"Indio",CA,33.732419,-116.238749
"Indio Hills",CA,33.841681,-116.248079
"Industry",CA,34.026232,-117.940327
"Inglewood",CA,33.956068,-118.344274
"Interlaken",CA,36.950604,-121.737519
"Inverness",CA,38.082796,-122.854943
"Inyokern",CA,35.654387,-117.819476
"Ione",CA,38.361921,-120.940461
"Iron Horse",CA,39.780483,-120.482312
"Irvine",CA,33.678399,-117.771254
"Irwindale",CA,34.111914,-117.963523
"Isla Vista",CA,34.414116,-119.857874
"Isleton",CA,38.161252,-121.604958
"Ivanhoe",CA,36.388539,-119.220167
"Jackson",CA,38.348454,-120.772366
"Jacumba",CA,32.636478,-116.190706
"Jamestown",CA,37.95878,-120.408787
"Jamul",CA,32.721063,-116.863036
"Janesville",CA,40.276377,-120.544154
"Jenner",CA,38.459034,-123.127467
"Johannesburg",CA,35.371763,-117.641963
"Johnstonville",CA,40.380198,-120.586134
"Johnsville",CA,39.76971,-120.699783
"Joshua Tree",CA,34.122471,-116.313663
"Julian",CA,33.073594,-116.588967
"Junction",CA,40.724214,-123.050717
"June Lake",CA,37.767807,-119.107284
"Jurupa Valley",CA,34.002591,-117.467612
"Keddie",CA,40.005919,-120.952502
"Keeler",CA,36.484621,-117.872047
"Keene",CA,35.23178,-118.613067
"Kelly Ridge",CA,39.528803,-121.466259
"Kelseyville",CA,38.970184,-122.831384
"Kennedy",CA,37.929075,-121.24579
"Kennedy Meadows",CA,36.007639,-118.109947
"Kensington",CA,37.910303,-122.282746
"Kentfield",CA,37.935426,-122.558794
"Kenwood",CA,38.415404,-122.538734
"Kerman",CA,36.725007,-120.062397
"Kernville",CA,35.75556,-118.432752
"Keswick",CA,40.612959,-122.460779
"Kettleman",CA,36.008986,-119.962852
"Keyes",CA,37.561853,-120.908904
"King",CA,36.216283,-121.131962
"Kings Beach",CA,39.249026,-120.0201
"Kingsburg",CA,36.519885,-119.555683
"Kingvale",CA,39.320997,-120.438309
"Kirkwood",CA,38.689261,-120.054975
"Klamath",CA,41.532413,-124.007486
"Knightsen",CA,37.962426,-121.64858
"Knights Landing",CA,38.797958,-121.717626
"La Caada Flintridge",CA,34.210911,-118.200135
"La Crescenta-Montrose",CA,34.233016,-118.235774
"Ladera",CA,37.3996,-122.199097
"Ladera Heights",CA,33.996313,-118.375797
"Ladera Ranch",CA,33.549607,-117.641571
"Lafayette",CA,37.891004,-122.119529
"Laguna Beach",CA,33.542891,-117.76249
"Laguna Hills",CA,33.591523,-117.699407
"Laguna Niguel",CA,33.528868,-117.701175
"Laguna Woods",CA,33.612925,-117.731443
"Lagunitas-Forest Knolls",CA,38.018025,-122.691301
"La Habra",CA,33.927927,-117.951554
"La Habra Heights",CA,33.958959,-117.948973
"La Honda",CA,37.317737,-122.258626
"Lake Almanor Country Club",CA,40.257771,-121.146958
"Lake Almanor Peninsula",CA,40.28121,-121.134454
"Lake Almanor West",CA,40.233573,-121.202075
"Lake Arrowhead",CA,34.254105,-117.178098
"Lake California",CA,40.358355,-122.208843
"Lake",CA,41.645317,-120.222097
"Lake Davis",CA,39.853025,-120.459098
"Lake Don Pedro",CA,37.644917,-120.336843
"Lake Elsinore",CA,33.685956,-117.335404
"Lake Forest",CA,33.654946,-117.675848
"Lakehead",CA,40.903436,-122.399658
"Lake Hughes",CA,34.682415,-118.451938
"Lake Isabella",CA,35.637098,-118.48261
"Lakeland",CA,33.648956,-117.366823
"Lake Los Angeles",CA,34.609839,-117.830337
"Lake Mathews",CA,33.824966,-117.368343
"Lake Nacimiento",CA,35.730015,-120.870049
"Lake of the Pines",CA,39.038746,-121.061341
"Lake of the Woods",CA,34.827141,-118.997305
"Lakeport",CA,39.038215,-122.922697
"Lake Riverside",CA,33.518735,-116.812103
"Lake San Marcos",CA,33.122362,-117.208576
"Lake Sherwood",CA,34.132416,-118.88504
"Lakeside",CA,32.856617,-116.904237
"Lakeview",CA,33.828465,-117.123334
"Lake Wildwood",CA,39.23324,-121.19773
"Lakewood",CA,33.847135,-118.121894
"La Mesa",CA,32.769495,-117.021923
"La Mirada",CA,33.902045,-118.008961
"Lamont",CA,35.265142,-118.916042
"Lanare",CA,36.437717,-119.932208
"Lancaster",CA,34.693558,-118.175305
"La Palma",CA,33.850616,-118.039565
"La Porte",CA,39.672508,-120.985244
"La Presa",CA,32.712315,-117.00371
"La Puente",CA,34.032333,-117.95352
"La Quinta",CA,33.641767,-116.273943
"La Riviera",CA,38.568113,-121.35414
"Larkfield-Wikiup",CA,38.512972,-122.753601
"Larkspur",CA,37.940515,-122.52955
"La Selva Beach",CA,36.927375,-121.844404
"Las Flores",CA,33.583857,-117.623571
"Las Flores",CA,40.072141,-122.157312
"Las Lomas",CA,36.868813,-121.731611
"Lathrop",CA,37.81529,-121.312515
"Laton",CA,36.433757,-119.691601
"La Verne",CA,34.120521,-117.769928
"La Vina",CA,36.879865,-120.114802
"Lawndale",CA,33.888422,-118.353138
"Laytonville",CA,39.662256,-123.495015
"Lebec",CA,34.844618,-118.899228
"Lee Vining",CA,37.955624,-119.133675
"Leggett",CA,39.863539,-123.725176
"Le Grand",CA,37.228815,-120.254002
"Lemon Cove",CA,36.378978,-119.031245
"Lemon Grove",CA,32.733071,-117.034414
"Lemon Hill",CA,38.51724,-121.457352
"Lemoore",CA,36.295954,-119.798256
"Lemoore Station",CA,36.263278,-119.904841
"Lennox",CA,33.938064,-118.358542
"Lenwood",CA,34.885199,-117.108326
"Leona Valley",CA,34.602974,-118.295323
"Lewiston",CA,40.696933,-122.822492
"Lexington Hills",CA,37.159016,-121.988793
"Likely",CA,41.226827,-120.501236
"Lincoln",CA,38.875476,-121.292384
"Lincoln",CA,38.005487,-121.333801
"Linda",CA,39.124143,-121.542312
"Lindcove",CA,36.359515,-119.072082
"Linden",CA,38.01814,-121.101562
"Lindsay",CA,36.20785,-119.090147
"Linnell Camp",CA,36.308887,-119.222583
"Litchfield",CA,40.387724,-120.380985
"Little Grass Valley",CA,39.725244,-120.959078
"Little River",CA,39.270285,-123.781749
"Littlerock",CA,34.525126,-117.981631
"Live Oak",CA,36.986024,-121.980414
"Live Oak",CA,39.278801,-121.66244
"Livermore",CA,37.685467,-121.762518
"Livingston",CA,37.387567,-120.725087
"Lockeford",CA,38.149128,-121.154309
"Lockwood",CA,35.940455,-121.079072
"Lodi",CA,38.12161,-121.290765
"Lodoga",CA,39.304272,-122.505944
"Loleta",CA,40.640884,-124.222565
"Loma Linda",CA,34.043937,-117.249542
"Loma Mar",CA,37.265797,-122.300685
"Loma Rica",CA,39.320323,-121.403829
"Lomita",CA,33.79331,-118.317446
"Lompico",CA,37.114619,-122.052768
"Lompoc",CA,34.662689,-120.470837
"London",CA,36.480973,-119.444004
"Lone Pine",CA,36.574447,-118.08061
"Long Barn",CA,38.093263,-120.134686
"Long Beach",CA,33.809179,-118.15529
"Lookout",CA,41.210401,-121.15296
"Loomis",CA,38.809368,-121.195467
"Los Alamitos",CA,33.79695,-118.061085
"Los Alamos",CA,34.729925,-120.269909
"Los Altos",CA,37.368521,-122.09666
"Los Altos Hills",CA,37.367227,-122.139099
"Los Angeles",CA,34.019394,-118.410825
"Los Banos",CA,37.063335,-120.840256
"Los Berros",CA,35.080907,-120.545031
"Los Gatos",CA,37.232976,-121.951066
"Los Molinos",CA,40.027011,-122.097994
"Los Olivos",CA,34.662217,-120.117387
"Los Osos",CA,35.304376,-120.824123
"Los Ranchos",CA,35.213361,-120.627476
"Lost Hills",CA,35.632801,-119.677764
"Lower Lake",CA,38.913034,-122.606987
"Loyalton",CA,39.676855,-120.244811
"Loyola",CA,37.350069,-122.09815
"Lucas Valley-Marinwood",CA,38.040501,-122.576528
"Lucerne",CA,39.05677,-122.770289
"Lucerne Valley",CA,34.442765,-116.902055
"Lynwood",CA,33.923962,-118.201647
"Lytle Creek",CA,34.249926,-117.504431
"Mabie",CA,39.77704,-120.544752
"McArthur",CA,41.041995,-121.40524
"McClellan Park",CA,38.662838,-121.401651
"McClenney Tract",CA,35.821984,-118.647839
"McCloud",CA,41.254739,-122.136221
"Macdoel",CA,41.825628,-122.0058
"McFarland",CA,35.670564,-119.232729
"McGee Creek",CA,37.572676,-118.790995
"McKinleyville",CA,40.952265,-124.074901
"McKittrick",CA,35.298028,-119.624921
"McSwain",CA,37.314546,-120.586741
"Madera",CA,36.963983,-120.080243
"Madera Acres",CA,37.012289,-120.079894
"Madison",CA,38.674988,-121.970254
"Mad River",CA,40.432015,-123.492427
"Magalia",CA,39.818698,-121.60782
"Malaga",CA,36.681602,-119.731786
"Malibu",CA,34.034219,-118.779491
"Mammoth Lakes",CA,37.60888,-118.971271
"Manchester",CA,38.974384,-123.690961
